[
    {
        "id": "DUBT01",
        "Nom": "Dublin Aeroport",
        "latitude": 53.4273,
        "longitude": -6.245
    },
    {
        "id": "MRST01",
        "Nom": "Marseille Provence Aéroport",
        "latitude": 43.4413,
        "longitude": 5.2236
    },
    {
        "id": "LHRT01",
        "Nom": "Londres Heathrow Aeroport",
        "latitude": 51.48,
        "longitude": -0.4715
    },
    {
        "id": "MANT01",
        "Nom": "Manchester Aeroport",
        "latitude": 53.3638,
        "longitude": -2.2602
    },
    {
        "id": "MXPT01",
        "Nom": "Milan Malpensa Aeroport T1",
        "latitude": 45.6261,
        "longitude": 8.7111
    },
    {
        "id": "ALCT01",
        "Nom": "Alicante Aeroport",
        "latitude": 38.2851,
        "longitude": -0.5585
    },
    {
        "id": "ZRHT01",
        "Nom": "Zurich Kloten Aeroport",
        "latitude": 47.4501,
        "longitude": 8.5631
    },
    {
        "id": "VCET01",
        "Nom": "Venise Aeroport",
        "latitude": 45.5021,
        "longitude": 12.3377
    },
    {
        "id": "MILC01",
        "Nom": "Milan Via Luigi Galvani",
        "latitude": 45.486,
        "longitude": 9.1999
    },
    {
        "id": "BLQT01",
        "Nom": "Bologne Aeroport",
        "latitude": 44.5295,
        "longitude": 11.2943
    },
    {
        "id": "OOLT01",
        "Nom": "Coolangatta Aeroport",
        "latitude": -28.1657,
        "longitude": 153.509
    },
    {
        "id": "CAGT02",
        "Nom": "Cagliari Aeroport Sardaigne",
        "latitude": 39.2544,
        "longitude": 9.0572
    },
    {
        "id": "MELT01",
        "Nom": "Melbourne Aeroport",
        "latitude": -37.6712,
        "longitude": 144.85
    },
    {
        "id": "BDST01",
        "Nom": "Brindisi Aeroport",
        "latitude": 40.6575,
        "longitude": 17.9381
    },
    {
        "id": "BNET01",
        "Nom": "Brisbane Aeroport",
        "latitude": -27.3855,
        "longitude": 153.1188
    },
    {
        "id": "SCQT01",
        "Nom": "Santiago Aeroport",
        "latitude": 42.5326,
        "longitude": -8.2519
    },
    {
        "id": "LIST01",
        "Nom": "Lisbonne Aeroport",
        "latitude": 38.7687,
        "longitude": -9.1287
    },
    {
        "id": "SYDN01",
        "Nom": "Sydney Artarmon",
        "latitude": -33.8172,
        "longitude": 151.1846
    },
    {
        "id": "TSVT01",
        "Nom": "Townsville Aeroport",
        "latitude": -19.2513,
        "longitude": 146.7594
    },
    {
        "id": "MADT01",
        "Nom": "Madrid Aeroport T1",
        "latitude": 40.4628,
        "longitude": -3.5703
    },
    {
        "id": "INVT01",
        "Nom": "Inverness Aeroport",
        "latitude": 57.5397,
        "longitude": -4.0655
    },
    {
        "id": "BRIT01",
        "Nom": "Bari Aeroport",
        "latitude": 41.1361,
        "longitude": 16.7683
    },
    {
        "id": "NCLT01",
        "Nom": "Newcastle Aeroport",
        "latitude": 55.037,
        "longitude": -1.7102
    },
    {
        "id": "VRNT01",
        "Nom": "Verone Aeroport",
        "latitude": 45.4026,
        "longitude": 10.9077
    },
    {
        "id": "PERC01",
        "Nom": "Perth City",
        "latitude": -31.9485,
        "longitude": 115.8466
    },
    {
        "id": "PARL11",
        "Nom": "Paris Pasteur Gare Montparnasse",
        "latitude": 48.8395,
        "longitude": 2.3178
    },
    {
        "id": "BGYT01",
        "Nom": "Bergamo Aeroport",
        "latitude": 45.6664,
        "longitude": 9.6982
    },
    {
        "id": "PERT01",
        "Nom": "Perth Aeroport",
        "latitude": -31.9347,
        "longitude": 115.9605
    },
    {
        "id": "MUCT01",
        "Nom": "Munich Aeroport",
        "latitude": 48.3537,
        "longitude": 11.7851
    },
    {
        "id": "OVDT02",
        "Nom": "Asturias Aeroport",
        "latitude": 43.5575,
        "longitude": -6.0302
    },
    {
        "id": "LINT01",
        "Nom": "Milan Linate Aeroport",
        "latitude": 45.4622,
        "longitude": 9.278
    },
    {
        "id": "LPAT01",
        "Nom": "Las Palmas Gran Canaria Aeroport",
        "latitude": 27.939,
        "longitude": -15.39
    },
    {
        "id": "GLAC08",
        "Nom": "Glasgow Lancefield Quay",
        "latitude": 55.8573,
        "longitude": -4.2762
    },
    {
        "id": "DRWT01",
        "Nom": "Darwin Aeroport",
        "latitude": -12.4113,
        "longitude": 130.8775
    },
    {
        "id": "PMIT01",
        "Nom": "Mallorca Palma Aeroport",
        "latitude": 39.5455,
        "longitude": 2.7266
    },
    {
        "id": "NCET02",
        "Nom": "Nice Cote d'Azur Aéroport",
        "latitude": 43.6605,
        "longitude": 7.2033
    },
    {
        "id": "TSFT01",
        "Nom": "Treviso Aeroport",
        "latitude": 45.6547,
        "longitude": 12.2044
    },
    {
        "id": "NTET01",
        "Nom": "Nantes Aéroport",
        "latitude": 47.158,
        "longitude": -1.601
    },
    {
        "id": "FCOT01",
        "Nom": "Rome Fiumicino Aeroport",
        "latitude": 41.7944,
        "longitude": 12.2525
    },
    {
        "id": "ROML01",
        "Nom": "Roma Termini Gare (Colosseum)",
        "latitude": 41.8993,
        "longitude": 12.5033
    },
    {
        "id": "EDIC10",
        "Nom": "Édimbourg St James Waverley",
        "latitude": 55.9548,
        "longitude": -3.1884
    },
    {
        "id": "OPOT01",
        "Nom": "Porto Aeroport",
        "latitude": 41.2372,
        "longitude": -8.6703
    },
    {
        "id": "VLCT01",
        "Nom": "Valencia Aeroport",
        "latitude": 39.4928,
        "longitude": -0.4762
    },
    {
        "id": "MELN04",
        "Nom": "Melbourne Tullamarine Off Aeroport",
        "latitude": -37.7053,
        "longitude": 144.8588
    },
    {
        "id": "AGPT01",
        "Nom": "Malaga Aeroport",
        "latitude": 36.6764,
        "longitude": -4.4901
    },
    {
        "id": "BCNT01",
        "Nom": "Barcelone Aeroport T1",
        "latitude": 41.2889,
        "longitude": 2.0753
    },
    {
        "id": "PARL01",
        "Nom": "Paris Gare De Lyon",
        "latitude": 48.844,
        "longitude": 2.3726
    },
    {
        "id": "FRAT01",
        "Nom": "Francfort Aeroport T1",
        "latitude": 50.0507,
        "longitude": 8.5687
    },
    {
        "id": "DUBC04",
        "Nom": "Dublin City Centre, Spencer Dock",
        "latitude": 53.3477,
        "longitude": -6.24
    },
    {
        "id": "BRUL01",
        "Nom": "Bruxelles Midi Gare",
        "latitude": 50.8347,
        "longitude": 4.3366
    },
    {
        "id": "LCGT01",
        "Nom": "La Coruna Aeroport",
        "latitude": 43.3033,
        "longitude": -8.3809
    },
    {
        "id": "LONL11",
        "Nom": "London Kings Cross",
        "latitude": 51.5315,
        "longitude": -0.1141
    },
    {
        "id": "BNEC02",
        "Nom": "Brisbane City",
        "latitude": -27.4573,
        "longitude": 153.0356
    },
    {
        "id": "CIAT01",
        "Nom": "Rome Sud Aeroport Ciampino",
        "latitude": 41.7987,
        "longitude": 12.5903
    },
    {
        "id": "BRUT01",
        "Nom": "Bruxelles Zaventem Aeroport",
        "latitude": 50.8957,
        "longitude": 4.4819
    },
    {
        "id": "GFHN01",
        "Nom": "Bonn North 24H Open *Ry*",
        "latitude": 50.7421,
        "longitude": 7.0774
    },
    {
        "id": "AAHC01",
        "Nom": "Aachen Rothe Erde",
        "latitude": 50.7887,
        "longitude": 6.1161
    },
    {
        "id": "PARC22",
        "Nom": "Nanterre Rueil Malmaison ",
        "latitude": 48.8944,
        "longitude": 2.1763
    },
    {
        "id": "LEIT02",
        "Nom": "Almeria Aeroport",
        "latitude": 36.8457,
        "longitude": -2.3752
    },
    {
        "id": "DRST01",
        "Nom": "Dresden Aeroport",
        "latitude": 51.125,
        "longitude": 13.7669
    },
    {
        "id": "ORYT01",
        "Nom": "Paris Orly Aéroport",
        "latitude": 48.7287,
        "longitude": 2.3624
    },
    {
        "id": "TLNT01",
        "Nom": "Toulon Hyeres Aeroport",
        "latitude": 43.0925,
        "longitude": 6.1587
    },
    {
        "id": "GVFT01",
        "Nom": "Geneve Ferney Voltaire Aeroport côté français",
        "latitude": 46.2361,
        "longitude": 6.1143
    },
    {
        "id": "LTNT01",
        "Nom": "Luton Aeroport",
        "latitude": 51.8857,
        "longitude": -0.3745
    },
    {
        "id": "GVAT01",
        "Nom": "Geneve Cointrin Aeroport côté suisse",
        "latitude": 46.2304,
        "longitude": 6.1079
    },
    {
        "id": "EDIT01",
        "Nom": "Edimbourg Aeroport",
        "latitude": 55.9463,
        "longitude": -3.3608
    },
    {
        "id": "LYST01",
        "Nom": "Lyon Saint Exupéry Aéroport",
        "latitude": 45.7272,
        "longitude": 5.0724
    },
    {
        "id": "SYDC01",
        "Nom": "Sydney City",
        "latitude": -33.8763,
        "longitude": 151.2126
    },
    {
        "id": "AKLC01",
        "Nom": "Auckland City",
        "latitude": -36.847,
        "longitude": 174.7696
    },
    {
        "id": "LBAC01",
        "Nom": "Leeds City",
        "latitude": 53.7813,
        "longitude": -1.5265
    },
    {
        "id": "FAOT01",
        "Nom": "Faro Aeroport",
        "latitude": 37.0204,
        "longitude": -7.9688
    },
    {
        "id": "CDGT02",
        "Nom": "Paris CDG Aéroport T2",
        "latitude": 49.0037,
        "longitude": 2.5667
    },
    {
        "id": "SYDT01",
        "Nom": "Sydney Aeroport",
        "latitude": -33.934,
        "longitude": 151.1821
    },
    {
        "id": "AMSC04",
        "Nom": "Centre-ville d’Amsterdam",
        "latitude": 52.37,
        "longitude": 4.8771
    },
    {
        "id": "AMST02",
        "Nom": "Amsterdam Aeroport",
        "latitude": 52.3081,
        "longitude": 4.7619
    },
    {
        "id": "EINT02",
        "Nom": "Eindhoven Aeroport",
        "latitude": 51.4576,
        "longitude": 5.3914
    },
    {
        "id": "EXTT02",
        "Nom": "Exeter Aeroport",
        "latitude": 50.7313,
        "longitude": -3.4167
    },
    {
        "id": "LONW19",
        "Nom": "London Kingston Upon Thames",
        "latitude": 51.4091,
        "longitude": -0.2881
    },
    {
        "id": "BHXS02",
        "Nom": "Birmingham Newtown",
        "latitude": 52.4941,
        "longitude": -1.8908
    },
    {
        "id": "NAPT01",
        "Nom": "Naples Capodichino Aeroport",
        "latitude": 40.8777,
        "longitude": 14.2814
    },
    {
        "id": "MADT04",
        "Nom": "Madrid Aeroport T4",
        "latitude": 40.4896,
        "longitude": -3.5949
    },
    {
        "id": "FRAE02",
        "Nom": "Frankfurt (24H Open East)",
        "latitude": 50.1231,
        "longitude": 8.7419
    },
    {
        "id": "ACET01",
        "Nom": "Lanzarote Aeroport",
        "latitude": 28.953,
        "longitude": -13.6093
    },
    {
        "id": "LONN09",
        "Nom": "Watford",
        "latitude": 51.6507,
        "longitude": -0.388
    },
    {
        "id": "HAMS25",
        "Nom": "Hamburg Harburg *Only Replacement*",
        "latitude": 53.5483,
        "longitude": 10.042
    },
    {
        "id": "HLEC01",
        "Nom": "Heilbronn Till 10Pm Open",
        "latitude": 49.1486,
        "longitude": 9.199
    },
    {
        "id": "MADS01",
        "Nom": "Madrid - Leganes Vans",
        "latitude": 40.3396,
        "longitude": -3.7257
    },
    {
        "id": "VIET01",
        "Nom": "Vienne Aeroport",
        "latitude": 48.1211,
        "longitude": 16.5635
    },
    {
        "id": "BFEC01",
        "Nom": "Bielefeld Till 12Pm",
        "latitude": 52.0335,
        "longitude": 8.5583
    },
    {
        "id": "LONW21",
        "Nom": "Slough",
        "latitude": 51.5233,
        "longitude": -0.6343
    },
    {
        "id": "ADLC01",
        "Nom": "Adelaide City",
        "latitude": -34.9216,
        "longitude": 138.6038
    },
    {
        "id": "TLST01",
        "Nom": "Toulouse Aéroport Blagnac",
        "latitude": 43.6311,
        "longitude": 1.3756
    },
    {
        "id": "LUXT02",
        "Nom": "Luxembourg ville Aéroport",
        "latitude": 49.6354,
        "longitude": 6.2168
    },
    {
        "id": "SYDW06",
        "Nom": "Sydney Parramatta",
        "latitude": -33.8323,
        "longitude": 151.0151
    },
    {
        "id": "OPOC01",
        "Nom": "Porto Centre Ville",
        "latitude": 41.1533,
        "longitude": -8.606
    },
    {
        "id": "FRAW01",
        "Nom": "Francfort Ouest",
        "latitude": 50.121,
        "longitude": 8.6211
    },
    {
        "id": "GOTT01",
        "Nom": "Gothenburg Landvetter Aeroport Int",
        "latitude": 57.6685,
        "longitude": 12.2972
    },
    {
        "id": "CBGC01",
        "Nom": "Cambridge",
        "latitude": 52.2121,
        "longitude": 0.1488
    },
    {
        "id": "CTAT01",
        "Nom": "Catania Aeroport",
        "latitude": 37.471,
        "longitude": 15.069
    },
    {
        "id": "NUET01",
        "Nom": "Nuremberg Aeroport",
        "latitude": 49.4935,
        "longitude": 11.079
    },
    {
        "id": "MADC02",
        "Nom": "Madrid Plaza De Espana",
        "latitude": 40.4247,
        "longitude": -3.711
    },
    {
        "id": "SYDW02",
        "Nom": "Sydney Milperra",
        "latitude": -33.9321,
        "longitude": 151.0006
    },
    {
        "id": "RHOT02",
        "Nom": "Aéroport de Rhodes",
        "latitude": 36.4084,
        "longitude": 28.1051
    },
    {
        "id": "SXBL01",
        "Nom": "Strasbourg Gare Centre Ville",
        "latitude": 48.5854,
        "longitude": 7.7364
    },
    {
        "id": "TFNT01",
        "Nom": "Tenerife-Aeroport Los Rodeos/Nord",
        "latitude": 28.4875,
        "longitude": -16.3371
    },
    {
        "id": "MAHT01",
        "Nom": "Menorca Aeroport",
        "latitude": 39.8744,
        "longitude": 4.2277
    },
    {
        "id": "HAMN25",
        "Nom": "Hamburg Bahrenfeld Nutzfahrzeuge",
        "latitude": 53.5667,
        "longitude": 9.9183
    },
    {
        "id": "MCTT01",
        "Nom": "Muscat Aeroport",
        "latitude": 23.5883,
        "longitude": 58.29
    },
    {
        "id": "LCYN01",
        "Nom": "London Woodford Green",
        "latitude": 51.6074,
        "longitude": 0.0353
    },
    {
        "id": "CPTT01",
        "Nom": "Cape Town Aeroport International",
        "latitude": -33.9695,
        "longitude": 18.5951
    },
    {
        "id": "PMOT01",
        "Nom": "Palerme Aeroport",
        "latitude": 38.1846,
        "longitude": 13.1001
    },
    {
        "id": "QMZC01",
        "Nom": "Mainz",
        "latitude": 50.0216,
        "longitude": 8.2413
    },
    {
        "id": "BRIC02",
        "Nom": "Bari Dt",
        "latitude": 41.0996,
        "longitude": 16.8804
    },
    {
        "id": "BCNL01",
        "Nom": "Barcelone Sants Gare",
        "latitude": 41.3785,
        "longitude": 2.1397
    },
    {
        "id": "MLHT01",
        "Nom": "Mulhouse Aeroport",
        "latitude": 47.6004,
        "longitude": 7.5313
    },
    {
        "id": "BERT01",
        "Nom": "Berlin Aéroport",
        "latitude": 52.364,
        "longitude": 13.5083
    },
    {
        "id": "STRL01",
        "Nom": "Stuttgart Gare Central",
        "latitude": 48.7858,
        "longitude": 9.1815
    },
    {
        "id": "NUES01",
        "Nom": "Nuremberg Sud",
        "latitude": 49.4296,
        "longitude": 11.0822
    },
    {
        "id": "STNT01",
        "Nom": "Londres Stansted Aeroport",
        "latitude": 51.8826,
        "longitude": 0.2523
    },
    {
        "id": "LGWT01",
        "Nom": "Londres Gatwick Aeroport Terminal Sud",
        "latitude": 51.1555,
        "longitude": -0.1599
    },
    {
        "id": "BLQX04",
        "Nom": "Bologne",
        "latitude": 44.5075,
        "longitude": 11.3417
    },
    {
        "id": "MADL03",
        "Nom": "Madrid Atocha Gare *Ry*",
        "latitude": 40.406,
        "longitude": -3.6887
    },
    {
        "id": "ASPT01",
        "Nom": "Alice Springs Aeroport",
        "latitude": -23.8018,
        "longitude": 133.9031
    },
    {
        "id": "CDGT01",
        "Nom": "Paris CDG Aéroport T1",
        "latitude": 49.0144,
        "longitude": 2.5409
    },
    {
        "id": "LPLT01",
        "Nom": "Liverpool Aeroport",
        "latitude": 53.3373,
        "longitude": -2.855
    },
    {
        "id": "FRAL01",
        "Nom": "Francfort Gare",
        "latitude": 50.1073,
        "longitude": 8.6646
    },
    {
        "id": "DUST01",
        "Nom": "Dusseldorf Aeroport",
        "latitude": 51.279,
        "longitude": 6.7658
    },
    {
        "id": "BRUW02",
        "Nom": "Bruxelles Anderlecht Drogenbos",
        "latitude": 50.8099,
        "longitude": 4.301
    },
    {
        "id": "BHXT01",
        "Nom": "Birmingham Aeroport",
        "latitude": 52.4518,
        "longitude": -1.7334
    },
    {
        "id": "LPLC01",
        "Nom": "Liverpool City",
        "latitude": 53.4566,
        "longitude": -2.984
    },
    {
        "id": "STRT01",
        "Nom": "Stuttgart Aeroport",
        "latitude": 48.6916,
        "longitude": 9.1928
    },
    {
        "id": "ATHT02",
        "Nom": "Aéroport d’Athènes",
        "latitude": 37.9366,
        "longitude": 23.9467
    },
    {
        "id": "EGCT01",
        "Nom": "Bergerac Aeroport",
        "latitude": 44.824,
        "longitude": 0.5147
    },
    {
        "id": "ZQYC01",
        "Nom": "Giessen",
        "latitude": 50.5691,
        "longitude": 8.6974
    },
    {
        "id": "BRET01",
        "Nom": "Bremen Aeroport",
        "latitude": 53.0527,
        "longitude": 8.7861
    },
    {
        "id": "DASC01",
        "Nom": "Darmstadt *Ry*",
        "latitude": 49.8894,
        "longitude": 8.6448
    },
    {
        "id": "DUIC02",
        "Nom": "Duisburg",
        "latitude": 51.4348,
        "longitude": 6.7731
    },
    {
        "id": "WUEC01",
        "Nom": "Wuerzburg Till12Pm Open *Ry*",
        "latitude": 49.794,
        "longitude": 9.9925
    },
    {
        "id": "GOAC03",
        "Nom": "Genes Centre Ville",
        "latitude": 44.4036,
        "longitude": 8.9526
    },
    {
        "id": "SZGT01",
        "Nom": "Salzburg Aeroport",
        "latitude": 47.792,
        "longitude": 12.9965
    },
    {
        "id": "HAMT01",
        "Nom": "Hambourg Aeroport",
        "latitude": 53.6309,
        "longitude": 10.006
    },
    {
        "id": "HBAC03",
        "Nom": "Hobart City",
        "latitude": -42.8833,
        "longitude": 147.3232
    },
    {
        "id": "PARX02",
        "Nom": "Paris  Gare Saint Lazare",
        "latitude": 48.8762,
        "longitude": 2.3253
    },
    {
        "id": "IBZT01",
        "Nom": "Ibiza Aeroport",
        "latitude": 38.8762,
        "longitude": 1.3659
    },
    {
        "id": "CNST01",
        "Nom": "Cairns Aeroport",
        "latitude": -16.8778,
        "longitude": 145.7499
    },
    {
        "id": "GLAT01",
        "Nom": "Glasgow Aeroport",
        "latitude": 55.866,
        "longitude": -4.4265
    },
    {
        "id": "ADLT01",
        "Nom": "Adelaide Aeroport",
        "latitude": -34.9361,
        "longitude": 138.5348
    },
    {
        "id": "FLRT01",
        "Nom": "Florence Aeroport",
        "latitude": 43.8002,
        "longitude": 11.1979
    },
    {
        "id": "EASC02",
        "Nom": "San Sebastian",
        "latitude": 43.3052,
        "longitude": -1.9751
    },
    {
        "id": "TFST01",
        "Nom": "Tenerife Aeroport Reina Sofia/Sud",
        "latitude": 28.0488,
        "longitude": -16.5777
    },
    {
        "id": "CCFT02",
        "Nom": "Carcassonne Aeroport",
        "latitude": 43.2124,
        "longitude": 2.3079
    },
    {
        "id": "BSLX01",
        "Nom": " Gare centrale de Bâle",
        "latitude": 47.5471,
        "longitude": 7.5939
    },
    {
        "id": "CNSC01",
        "Nom": "Cairns City",
        "latitude": -16.9204,
        "longitude": 145.7762
    },
    {
        "id": "TWBC02",
        "Nom": "Toowoomba",
        "latitude": -27.5521,
        "longitude": 151.9548
    },
    {
        "id": "FDFT01",
        "Nom": "Fort de France Aeroport",
        "latitude": 14.595,
        "longitude": -60.9971
    },
    {
        "id": "OLBT02",
        "Nom": "Olbia Aeroport Sardaigne",
        "latitude": 40.9044,
        "longitude": 9.5166
    },
    {
        "id": "VIEC01",
        "Nom": "Vienne Centre Ville",
        "latitude": 48.2013,
        "longitude": 16.3758
    },
    {
        "id": "SVQT01",
        "Nom": "Seville Aeroport",
        "latitude": 37.425,
        "longitude": -5.8981
    },
    {
        "id": "PSAT01",
        "Nom": "Pise Aeroport",
        "latitude": 43.6983,
        "longitude": 10.4046
    },
    {
        "id": "GRZT01",
        "Nom": "Graz Aeroport",
        "latitude": 46.995,
        "longitude": 15.4454
    },
    {
        "id": "FLRC01",
        "Nom": "Florence Centre Ville",
        "latitude": 43.7739,
        "longitude": 11.2432
    },
    {
        "id": "MCYT01",
        "Nom": "Maroochydore Aeroport",
        "latitude": -26.6056,
        "longitude": 153.0887
    },
    {
        "id": "BNKT01",
        "Nom": "Ballina Byron Gateway Aeroport",
        "latitude": -28.8377,
        "longitude": 153.5564
    },
    {
        "id": "MHGC02",
        "Nom": "Mannheim South Neckarau",
        "latitude": 49.4598,
        "longitude": 8.4913
    },
    {
        "id": "DXBT01",
        "Nom": "Dubai Aeroport International",
        "latitude": 25.2489,
        "longitude": 55.3523
    },
    {
        "id": "CRLT01",
        "Nom": "Charleroi Bruxelles Sud Aeroport",
        "latitude": 50.4702,
        "longitude": 4.4374
    },
    {
        "id": "CEGC02",
        "Nom": "Chester",
        "latitude": 53.1916,
        "longitude": -2.9165
    },
    {
        "id": "FNCT01",
        "Nom": "Funchal Aeroport",
        "latitude": 32.6933,
        "longitude": -16.7755
    },
    {
        "id": "LONL20",
        "Nom": "London St Pancras",
        "latitude": 51.5331,
        "longitude": -0.1272
    },
    {
        "id": "BRST01",
        "Nom": "Bristol Aeroport",
        "latitude": 51.3803,
        "longitude": -2.7072
    },
    {
        "id": "ZORN01",
        "Nom": "Weiden 24H-Service",
        "latitude": 49.6648,
        "longitude": 12.1536
    },
    {
        "id": "LAXO01",
        "Nom": "Los Angeles Aéroport",
        "latitude": 33.9471,
        "longitude": -118.4083
    },
    {
        "id": "ARNO01",
        "Nom": "Stockholm Arn Aeroport International",
        "latitude": 59.6381,
        "longitude": 17.9393
    },
    {
        "id": "GLOC01",
        "Nom": "Gloucester",
        "latitude": 51.8593,
        "longitude": -2.2607
    },
    {
        "id": "CLYT01",
        "Nom": "Calvi Aeroport",
        "latitude": 42.5248,
        "longitude": 8.7893
    },
    {
        "id": "GNBL01",
        "Nom": "Grenoble Gare",
        "latitude": 45.1915,
        "longitude": 5.7147
    },
    {
        "id": "KELC01",
        "Nom": "Kiel",
        "latitude": 54.3054,
        "longitude": 10.1293
    },
    {
        "id": "SGYC01",
        "Nom": "Singen",
        "latitude": 47.7544,
        "longitude": 8.8551
    },
    {
        "id": "CUNT01",
        "Nom": "Cancun Aeroport International",
        "latitude": 21.0415,
        "longitude": -86.8727
    },
    {
        "id": "CPHC01",
        "Nom": "Copenhague",
        "latitude": 55.674,
        "longitude": 12.5582
    },
    {
        "id": "BNEC04",
        "Nom": "Brisbane City Commercials",
        "latitude": -27.3686,
        "longitude": 153.0508
    },
    {
        "id": "ISTT03",
        "Nom": "Istanbul Aeroport",
        "latitude": 41.2604,
        "longitude": 28.7432
    },
    {
        "id": "BCNN04",
        "Nom": "Sabadell",
        "latitude": 41.533,
        "longitude": 2.102
    },
    {
        "id": "VRNC01",
        "Nom": "Verone Centre Ville",
        "latitude": 45.4333,
        "longitude": 10.9849
    },
    {
        "id": "PSRT01",
        "Nom": "Pescara Aeroport",
        "latitude": 42.431,
        "longitude": 14.189
    },
    {
        "id": "PARC12",
        "Nom": "Paris Place d'Italie",
        "latitude": 48.8302,
        "longitude": 2.3561
    },
    {
        "id": "LISX01",
        "Nom": "Lisbon Santa Apolonia Rrs",
        "latitude": 38.7137,
        "longitude": -9.1232
    },
    {
        "id": "OTPT01",
        "Nom": "Bucharest Aeroport",
        "latitude": 44.57,
        "longitude": 26.0775
    },
    {
        "id": "KEFT01",
        "Nom": "Keflavik Aeroport International",
        "latitude": 63.9967,
        "longitude": -22.6229
    },
    {
        "id": "LBGT01",
        "Nom": "Paris Le Bourget Aéroport",
        "latitude": 48.9583,
        "longitude": 2.4451
    },
    {
        "id": "WLGT01",
        "Nom": "Wellington Aeroport",
        "latitude": -41.3293,
        "longitude": 174.8111
    },
    {
        "id": "MUCN01",
        "Nom": "Munich Till 12Pm*No Trucks*",
        "latitude": 48.1902,
        "longitude": 11.5838
    },
    {
        "id": "PARC06",
        "Nom": "Paris Parc des Princes",
        "latitude": 48.8388,
        "longitude": 2.2537
    },
    {
        "id": "DRSC02",
        "Nom": "Dresden Ville",
        "latitude": 51.0383,
        "longitude": 13.7362
    },
    {
        "id": "RUNT01",
        "Nom": "Saint Denis Aeroport",
        "latitude": -20.8923,
        "longitude": 55.5117
    },
    {
        "id": "DUSW03",
        "Nom": "Moenchengladbach*New From 01.09.18*",
        "latitude": 51.1923,
        "longitude": 6.4461
    },
    {
        "id": "MELC01",
        "Nom": "Melbourne Ville",
        "latitude": -37.8081,
        "longitude": 144.9616
    },
    {
        "id": "UWEC01",
        "Nom": "Wiesbaden",
        "latitude": 50.0679,
        "longitude": 8.2501
    },
    {
        "id": "CPHT01",
        "Nom": "Copenhague Aeroport International",
        "latitude": 55.6299,
        "longitude": 12.6326
    },
    {
        "id": "SWSC01",
        "Nom": "Swansea",
        "latitude": 51.6561,
        "longitude": -3.907
    },
    {
        "id": "KGIT03",
        "Nom": "KALGOORLIE BOULDER AIRPORT",
        "latitude": -30.7854,
        "longitude": 121.4579
    },
    {
        "id": "WAWT01",
        "Nom": "Warsaw Chopin Aeroport",
        "latitude": 52.1721,
        "longitude": 20.9727
    },
    {
        "id": "SVQL01",
        "Nom": "Seville Gare",
        "latitude": 37.3934,
        "longitude": -5.9752
    },
    {
        "id": "BZOT03",
        "Nom": "Bolzano Airport ",
        "latitude": 46.4624,
        "longitude": 11.3304
    },
    {
        "id": "RIXT01",
        "Nom": "Riga Aeroport International",
        "latitude": 56.9219,
        "longitude": 23.9796
    },
    {
        "id": "AKLT01",
        "Nom": "Auckland Aeroport",
        "latitude": -37.0045,
        "longitude": 174.7821
    },
    {
        "id": "POZT01",
        "Nom": "Poznan Aeroport",
        "latitude": 52.4149,
        "longitude": 16.8259
    },
    {
        "id": "LGGC01",
        "Nom": "Liege",
        "latitude": 50.6139,
        "longitude": 5.5405
    },
    {
        "id": "BERC02",
        "Nom": "Berlin Alexanderplatz",
        "latitude": 52.5232,
        "longitude": 13.4122
    },
    {
        "id": "INNT01",
        "Nom": "Innsbruck Aeroport",
        "latitude": 47.2576,
        "longitude": 11.3512
    },
    {
        "id": "CHQT02",
        "Nom": "Aéroport de La Canée",
        "latitude": 35.5403,
        "longitude": 24.1292
    },
    {
        "id": "BIOT01",
        "Nom": "Bilbao Aeroport",
        "latitude": 43.3065,
        "longitude": -2.9053
    },
    {
        "id": "WVNC03",
        "Nom": "Wilhelmshaven",
        "latitude": 53.5718,
        "longitude": 8.1168
    },
    {
        "id": "CGNS01",
        "Nom": "Cologne Sud",
        "latitude": 50.9144,
        "longitude": 6.9618
    },
    {
        "id": "MMEC01",
        "Nom": "Middlesbrough",
        "latitude": 54.5739,
        "longitude": -1.2243
    },
    {
        "id": "MQGC01",
        "Nom": "Magdeburg",
        "latitude": 52.1635,
        "longitude": 11.6347
    },
    {
        "id": "HBAT02",
        "Nom": "Hobart Aeroport",
        "latitude": -42.8364,
        "longitude": 147.5074
    },
    {
        "id": "AGPL01",
        "Nom": "Malaga Gare",
        "latitude": 36.7122,
        "longitude": -4.4307
    },
    {
        "id": "TRNT01",
        "Nom": "Turin Aeroport",
        "latitude": 45.1911,
        "longitude": 7.6419
    },
    {
        "id": "ZOIC01",
        "Nom": "Marburg",
        "latitude": 50.8273,
        "longitude": 8.7699
    },
    {
        "id": "NAPX01",
        "Nom": "Naples Fs",
        "latitude": 40.8544,
        "longitude": 14.2737
    },
    {
        "id": "HOQC02",
        "Nom": "Hof (24H-Service)",
        "latitude": 50.3119,
        "longitude": 11.8814
    },
    {
        "id": "ROKT01",
        "Nom": "Rockhampton Aeroport",
        "latitude": -23.3783,
        "longitude": 150.4785
    },
    {
        "id": "STRN01",
        "Nom": "Stuttgart Zuffenhausen",
        "latitude": 48.8246,
        "longitude": 9.1726
    },
    {
        "id": "BSLT01",
        "Nom": "Bale Mulhouse Aeroport",
        "latitude": 47.5992,
        "longitude": 7.5332
    },
    {
        "id": "MUCE02",
        "Nom": "Munich East",
        "latitude": 48.1209,
        "longitude": 11.6644
    },
    {
        "id": "PADC02",
        "Nom": "Paderborn",
        "latitude": 51.7266,
        "longitude": 8.7306
    },
    {
        "id": "PFOT01",
        "Nom": "Paphos Aeroport International",
        "latitude": 34.7117,
        "longitude": 32.4891
    },
    {
        "id": "BODT01",
        "Nom": "Bordeaux Merignac Aéroport",
        "latitude": 44.8312,
        "longitude": -0.7009
    },
    {
        "id": "AVNL03",
        "Nom": "Avignon Gare TGV",
        "latitude": 43.923,
        "longitude": 4.7865
    },
    {
        "id": "ZTHT02",
        "Nom": "Aéroport de Zakynthos",
        "latitude": 37.7567,
        "longitude": 20.8871
    },
    {
        "id": "ARYS03",
        "Nom": "Ballarat - À partir du 03.03.2022",
        "latitude": -37.5417,
        "longitude": 143.8395
    },
    {
        "id": "LONL01",
        "Nom": "Londres Victoria Gare",
        "latitude": 51.4919,
        "longitude": -0.1499
    },
    {
        "id": "FLRC07",
        "Nom": "Florence Novoli",
        "latitude": 43.7901,
        "longitude": 11.2286
    },
    {
        "id": "CGNE01",
        "Nom": "Cologne (24H Open Deutz)",
        "latitude": 50.9389,
        "longitude": 6.9789
    },
    {
        "id": "MELC02",
        "Nom": "Melbourne St Kilda",
        "latitude": -37.8512,
        "longitude": 144.9783
    },
    {
        "id": "SXBT01",
        "Nom": "Strasbourg Aeroport",
        "latitude": 48.5451,
        "longitude": 7.6281
    },
    {
        "id": "ZHZC01",
        "Nom": "Halle-sur-Saale",
        "latitude": 51.4774,
        "longitude": 12.0043
    },
    {
        "id": "HUNC01",
        "Nom": "Hull",
        "latitude": 53.7686,
        "longitude": -0.3568
    },
    {
        "id": "DXBT03",
        "Nom": "Terminal 3 Dubai Int'L Aeroport",
        "latitude": 25.2432,
        "longitude": 55.3722
    },
    {
        "id": "BQBC02",
        "Nom": "BUSSELTON CITY",
        "latitude": -33.6692,
        "longitude": 115.3466
    },
    {
        "id": "GKCC01",
        "Nom": "Hagen",
        "latitude": 51.3596,
        "longitude": 7.4625
    },
    {
        "id": "VIEL01",
        "Nom": "Vienne Gare Central",
        "latitude": 48.1846,
        "longitude": 16.3764
    },
    {
        "id": "ABZT01",
        "Nom": "Aberdeen Aeroport",
        "latitude": 57.1989,
        "longitude": -2.2062
    },
    {
        "id": "BRNC01",
        "Nom": "Berne, Centre Ville",
        "latitude": 46.9473,
        "longitude": 7.4339
    },
    {
        "id": "GEZC01",
        "Nom": "Bochum",
        "latitude": 51.48,
        "longitude": 7.2065
    },
    {
        "id": "MELE06",
        "Nom": "Melbourne Blackburn",
        "latitude": -37.8178,
        "longitude": 145.1507
    },
    {
        "id": "SWIC01",
        "Nom": "Swindon",
        "latitude": 51.5968,
        "longitude": -1.7769
    },
    {
        "id": "CBPC01",
        "Nom": "Coimbra",
        "latitude": 40.2024,
        "longitude": -8.4047
    },
    {
        "id": "BODL02",
        "Nom": "Bordeaux Gare Saint Jean",
        "latitude": 44.822,
        "longitude": -0.5549
    },
    {
        "id": "MANW01",
        "Nom": "Manchester Trafford Park",
        "latitude": 53.4698,
        "longitude": -2.3276
    },
    {
        "id": "LISC07",
        "Nom": "Lisbon Centre ville City Center",
        "latitude": 38.7242,
        "longitude": -9.1476
    },
    {
        "id": "ZPWC02",
        "Nom": "Schweinfurt",
        "latitude": 50.0438,
        "longitude": 10.2184
    },
    {
        "id": "LSTT02",
        "Nom": "Launceston Aeroport",
        "latitude": -41.5465,
        "longitude": 147.2067
    },
    {
        "id": "SUFT01",
        "Nom": "Lamezia Aeroport",
        "latitude": 38.9097,
        "longitude": 16.2464
    },
    {
        "id": "QFBC01",
        "Nom": "Freiburg Im Br. Till 10Pm Open",
        "latitude": 47.9807,
        "longitude": 7.8244
    },
    {
        "id": "OXFC01",
        "Nom": "Oxford",
        "latitude": 51.7495,
        "longitude": -1.2771
    },
    {
        "id": "RSOC01",
        "Nom": "Rostock Till 12Pm",
        "latitude": 54.0923,
        "longitude": 12.1213
    },
    {
        "id": "QLPC02",
        "Nom": "La Spezia",
        "latitude": 44.1116,
        "longitude": 9.8487
    },
    {
        "id": "MRSL01",
        "Nom": "Marseille Gare St Charles",
        "latitude": 43.3032,
        "longitude": 5.3845
    },
    {
        "id": "LYSL01",
        "Nom": "Lyon Part Dieu Gare",
        "latitude": 45.76,
        "longitude": 4.8609
    },
    {
        "id": "MELS02",
        "Nom": "Melbourne Frankston",
        "latitude": -38.1321,
        "longitude": 145.1303
    },
    {
        "id": "QFBS02",
        "Nom": "Loerrach",
        "latitude": 47.602,
        "longitude": 7.6515
    },
    {
        "id": "DPOC02",
        "Nom": "Devonport City",
        "latitude": -41.1802,
        "longitude": 146.3677
    },
    {
        "id": "LISN01",
        "Nom": "Lisbonne Centre Ville Prior Velho",
        "latitude": 38.7864,
        "longitude": -9.1274
    },
    {
        "id": "GDNT01",
        "Nom": "Gdansk Aeroport",
        "latitude": 54.3809,
        "longitude": 18.4682
    },
    {
        "id": "AGBC02",
        "Nom": "Augsbourg Lechhausen",
        "latitude": 48.3699,
        "longitude": 10.9324
    },
    {
        "id": "SDLT01",
        "Nom": "Sundsvall Midlanda Aeroport",
        "latitude": 62.5262,
        "longitude": 17.4361
    },
    {
        "id": "DXBT02",
        "Nom": "Dubai Aéroport Terminal 2",
        "latitude": 25.2655,
        "longitude": 55.3592
    },
    {
        "id": "BFST06",
        "Nom": "Belfast Aeroport",
        "latitude": 54.6618,
        "longitude": -6.2167
    },
    {
        "id": "MPLC01",
        "Nom": "Montpellier Ouest",
        "latitude": 43.581,
        "longitude": 3.8654
    },
    {
        "id": "IPWE01",
        "Nom": "Ipswich",
        "latitude": 52.0608,
        "longitude": 1.1871
    },
    {
        "id": "NUEW01",
        "Nom": "Nuremberg Grossreuth",
        "latitude": 49.4317,
        "longitude": 11.0297
    },
    {
        "id": "QLSW01",
        "Nom": "Lausanne Crissier",
        "latitude": 46.5448,
        "longitude": 6.5673
    },
    {
        "id": "QULC01",
        "Nom": "Ulm / Donau",
        "latitude": 48.4004,
        "longitude": 9.9561
    },
    {
        "id": "PRGT02",
        "Nom": "Prague Aéroport",
        "latitude": 50.1069,
        "longitude": 14.2689
    },
    {
        "id": "MUCX01",
        "Nom": "Munich Ville À proximité Gare centrale",
        "latitude": 48.1436,
        "longitude": 11.5576
    },
    {
        "id": "BSLR01",
        "Nom": "Basel Messeplatz",
        "latitude": 47.5625,
        "longitude": 7.5995
    },
    {
        "id": "GETT04",
        "Nom": "GERALDTON AIRPORT",
        "latitude": -28.796,
        "longitude": 114.702
    },
    {
        "id": "RULC01",
        "Nom": "Reutlingen",
        "latitude": 48.5017,
        "longitude": 9.2165
    },
    {
        "id": "CBRT01",
        "Nom": "Canberra Aeroport",
        "latitude": -35.3053,
        "longitude": 149.1933
    },
    {
        "id": "VGOT01",
        "Nom": "Vigo Aeroport",
        "latitude": 42.2258,
        "longitude": -8.6312
    },
    {
        "id": "HAJT01",
        "Nom": "Hanovre Aeroport",
        "latitude": 52.4594,
        "longitude": 9.7004
    },
    {
        "id": "CEQT01",
        "Nom": "Cannes Aeroport",
        "latitude": 43.5469,
        "longitude": 6.9542
    },
    {
        "id": "SAWT01",
        "Nom": "Istanbul Sabiha Gokcen Aeroport",
        "latitude": 40.9079,
        "longitude": 29.3157
    },
    {
        "id": "JMKO01",
        "Nom": "Aéroport de Mykonos",
        "latitude": 37.4329,
        "longitude": 25.332
    },
    {
        "id": "BHET01",
        "Nom": "Marlborough Aeroport",
        "latitude": -41.5136,
        "longitude": 173.8676
    },
    {
        "id": "QLSC01",
        "Nom": "Lausanne, Gare Cff, Centre Ville",
        "latitude": 46.5181,
        "longitude": 6.6279
    },
    {
        "id": "CAXC03",
        "Nom": "Carlisle",
        "latitude": 54.8915,
        "longitude": -2.9456
    },
    {
        "id": "RROC02",
        "Nom": "Sorrento",
        "latitude": 40.6268,
        "longitude": 14.3802
    },
    {
        "id": "BERN01",
        "Nom": "Berlin Reinickendorf",
        "latitude": 52.5621,
        "longitude": 13.3303
    },
    {
        "id": "SKPT01",
        "Nom": "Skopje Aeroport International",
        "latitude": 41.9607,
        "longitude": 21.6275
    },
    {
        "id": "LEJC02",
        "Nom": "Leipzig City (No Trucks)",
        "latitude": 51.3452,
        "longitude": 12.3844
    },
    {
        "id": "ROMC02",
        "Nom": "Rome Eur",
        "latitude": 41.8334,
        "longitude": 12.4654
    },
    {
        "id": "REUC02",
        "Nom": "Reus",
        "latitude": 41.1513,
        "longitude": 1.1131
    },
    {
        "id": "QXBL01",
        "Nom": "Aix En Provence Gare",
        "latitude": 43.4534,
        "longitude": 5.3172
    },
    {
        "id": "BERL01",
        "Nom": "Berlin Hauptbahnhof",
        "latitude": 52.5259,
        "longitude": 13.3688
    },
    {
        "id": "AUHT02",
        "Nom": "Aéroport international Zayed",
        "latitude": 24.4512,
        "longitude": 54.64
    },
    {
        "id": "LUGC01",
        "Nom": "Lugano, Amag",
        "latitude": 46.0176,
        "longitude": 8.9609
    },
    {
        "id": "BNEE02",
        "Nom": "Brisbane Cannon Hill",
        "latitude": -27.4714,
        "longitude": 153.1099
    },
    {
        "id": "GRZC01",
        "Nom": "Graz",
        "latitude": 47.0621,
        "longitude": 15.4212
    },
    {
        "id": "ZQNT01",
        "Nom": "Queenstown Aeroport",
        "latitude": -45.0217,
        "longitude": 168.7395
    },
    {
        "id": "NTLT02",
        "Nom": "Newcastle Aeroport",
        "latitude": -32.8042,
        "longitude": 151.84
    },
    {
        "id": "BVAT04",
        "Nom": "Paris-Beauvais Aéroport ",
        "latitude": 49.4544,
        "longitude": 2.1115
    },
    {
        "id": "ZQLC01",
        "Nom": "Villingen-Schwenningen",
        "latitude": 48.0775,
        "longitude": 8.4936
    },
    {
        "id": "QNJC01",
        "Nom": "Annemasse",
        "latitude": 46.1932,
        "longitude": 6.2553
    },
    {
        "id": "ZEUC01",
        "Nom": "Goettingen",
        "latitude": 51.5345,
        "longitude": 9.9224
    },
    {
        "id": "MILC10",
        "Nom": "Milan Lorenteggio",
        "latitude": 45.4663,
        "longitude": 9.1367
    },
    {
        "id": "HAMC03",
        "Nom": "Hamburg (24H Open Wandsb)",
        "latitude": 53.5721,
        "longitude": 10.06
    },
    {
        "id": "ROMC05",
        "Nom": "Rome Cipro / Etat Du Vatican",
        "latitude": 41.9062,
        "longitude": 12.4457
    },
    {
        "id": "PARC29",
        "Nom": "Paris Etoile Foch",
        "latitude": 48.8736,
        "longitude": 2.2915
    },
    {
        "id": "CXZC01",
        "Nom": "Cascais",
        "latitude": 38.701,
        "longitude": -9.4197
    },
    {
        "id": "PMIE01",
        "Nom": "Mallorca Cala Millor",
        "latitude": 39.593,
        "longitude": 3.3817
    },
    {
        "id": "ALCL01",
        "Nom": "Alicante Gare",
        "latitude": 38.3452,
        "longitude": -0.4952
    },
    {
        "id": "BMET01",
        "Nom": "Broome Aeroport",
        "latitude": -17.9526,
        "longitude": 122.2338
    },
    {
        "id": "QLJC01",
        "Nom": "Lucerne Centre Ville Hotel Radisson",
        "latitude": 47.0484,
        "longitude": 8.3144
    },
    {
        "id": "NQYT01",
        "Nom": "Newquay Aeroport",
        "latitude": 50.4469,
        "longitude": -5.0039
    },
    {
        "id": "DVEC03",
        "Nom": "Dover",
        "latitude": 51.1206,
        "longitude": 1.3092
    },
    {
        "id": "DIZC02",
        "Nom": "Diez",
        "latitude": 50.3706,
        "longitude": 8.0269
    },
    {
        "id": "BRSS04",
        "Nom": "Bristol South",
        "latitude": 51.4462,
        "longitude": -2.5812
    },
    {
        "id": "DUSN01",
        "Nom": "Dusseldorf Nord",
        "latitude": 51.2802,
        "longitude": 6.7798
    },
    {
        "id": "LYSE01",
        "Nom": "Lyon  Est ",
        "latitude": 45.7462,
        "longitude": 4.9271
    },
    {
        "id": "FKBC01",
        "Nom": "Karlsruhe Till 12Pm Open",
        "latitude": 48.997,
        "longitude": 8.444
    },
    {
        "id": "AUFC01",
        "Nom": "Albufeira *Ry*",
        "latitude": 37.0936,
        "longitude": -8.2533
    },
    {
        "id": "LONS02",
        "Nom": "London Croydon",
        "latitude": 51.356,
        "longitude": -0.1195
    },
    {
        "id": "HERT02",
        "Nom": "Aéroport d’Héraklion",
        "latitude": 35.338,
        "longitude": 25.1634
    },
    {
        "id": "HAJN01",
        "Nom": "Hanover Nord H24",
        "latitude": 52.4044,
        "longitude": 9.7348
    },
    {
        "id": "BODW03",
        "Nom": "Bordeaux Le Haillan",
        "latitude": 44.858,
        "longitude": -0.6804
    },
    {
        "id": "RKVT01",
        "Nom": "Reykjavik Aeroport Domestique",
        "latitude": 64.1318,
        "longitude": -21.9468
    },
    {
        "id": "PARL06",
        "Nom": "Paris Gare Du Nord",
        "latitude": 48.8806,
        "longitude": 2.3539
    },
    {
        "id": "SDRT02",
        "Nom": "Santander Aeroport",
        "latitude": 43.4177,
        "longitude": -3.8347
    },
    {
        "id": "FMMS01",
        "Nom": "Kempten Dolders",
        "latitude": 47.7367,
        "longitude": 10.3275
    },
    {
        "id": "BGZC01",
        "Nom": "Braga",
        "latitude": 41.5494,
        "longitude": -8.4124
    },
    {
        "id": "BCNT02",
        "Nom": "Barcelone Aeroport T2",
        "latitude": 41.3028,
        "longitude": 2.0771
    },
    {
        "id": "CHCT01",
        "Nom": "Christchurch Aeroport",
        "latitude": -43.4882,
        "longitude": 172.5419
    },
    {
        "id": "PMIN04",
        "Nom": "Mallorca Alcudia Bellevue",
        "latitude": 39.8302,
        "longitude": 3.1091
    },
    {
        "id": "PPPT01",
        "Nom": "Proserpine Aeroport",
        "latitude": -20.4893,
        "longitude": 148.5517
    },
    {
        "id": "MADL02",
        "Nom": "Madrid Chamartin Gare",
        "latitude": 40.4711,
        "longitude": -3.6828
    },
    {
        "id": "WMIT01",
        "Nom": "Warsaw Modlin Aéroport",
        "latitude": 52.4459,
        "longitude": 20.6509
    },
    {
        "id": "SPCT01",
        "Nom": "La Palma (Iles Canaries) Aeroport",
        "latitude": 28.6214,
        "longitude": -17.7528
    },
    {
        "id": "BCNS09",
        "Nom": "Cornella De Llobregat",
        "latitude": 41.3514,
        "longitude": 2.0966
    },
    {
        "id": "HELT01",
        "Nom": "Helsinky Term. Aeroport Int",
        "latitude": 60.3167,
        "longitude": 24.9709
    },
    {
        "id": "QMZS01",
        "Nom": "Mainz South Hechtsheim",
        "latitude": 49.8495,
        "longitude": 7.8949
    },
    {
        "id": "BEST01",
        "Nom": "Brest Aéroport",
        "latitude": 48.4442,
        "longitude": -4.4132
    },
    {
        "id": "NCEW02",
        "Nom": "Nice Plaine Du Var",
        "latitude": 43.6912,
        "longitude": 7.1969
    },
    {
        "id": "SOUT01",
        "Nom": "Southampton Aeroport",
        "latitude": 50.9507,
        "longitude": -1.3633
    },
    {
        "id": "BERC01",
        "Nom": "Berlin City West",
        "latitude": 52.5048,
        "longitude": 13.342
    },
    {
        "id": "MPLT01",
        "Nom": "Montpellier Aeroport Mediterranee",
        "latitude": 43.5779,
        "longitude": 3.9597
    },
    {
        "id": "DUSL01",
        "Nom": "Dusseldorf Gare",
        "latitude": 51.2203,
        "longitude": 6.7913
    },
    {
        "id": "QGLC02",
        "Nom": "Saint-Gall, Vadianstrasse",
        "latitude": 47.4219,
        "longitude": 9.371
    },
    {
        "id": "GVAW01",
        "Nom": "Genève Vernier",
        "latitude": 46.2202,
        "longitude": 6.0855
    },
    {
        "id": "LCGX01",
        "Nom": "La Coruna Renfe",
        "latitude": 43.2103,
        "longitude": -8.2442
    },
    {
        "id": "BERE03",
        "Nom": "Berlin Hellersdorf",
        "latitude": 52.5377,
        "longitude": 13.603
    },
    {
        "id": "LONN08",
        "Nom": "London Park Royal",
        "latitude": 51.547,
        "longitude": -0.2605
    },
    {
        "id": "MELW03",
        "Nom": "Melbourne Albion",
        "latitude": -37.8148,
        "longitude": 144.8244
    },
    {
        "id": "FUET01",
        "Nom": "Fuerteventura Aeroport",
        "latitude": 28.452,
        "longitude": -13.8705
    },
    {
        "id": "SZGC01",
        "Nom": "Salzburg",
        "latitude": 47.8154,
        "longitude": 13.0511
    },
    {
        "id": "DTMN25",
        "Nom": " Dortmund Véhicule(s) Utilitaire(s)",
        "latitude": 51.5239,
        "longitude": 7.5154
    },
    {
        "id": "STNS01",
        "Nom": "Chelmsford",
        "latitude": 51.7434,
        "longitude": 0.5031
    },
    {
        "id": "TLNL01",
        "Nom": "Toulon Gare Sncf Hall loueur",
        "latitude": 43.1284,
        "longitude": 5.9292
    },
    {
        "id": "NCEL01",
        "Nom": "Nice Gare",
        "latitude": 43.704,
        "longitude": 7.2613
    },
    {
        "id": "STRW01",
        "Nom": "Stuttgart 24h Vans & Trucks / Cars US Mititary ",
        "latitude": 48.733,
        "longitude": 9.0877
    },
    {
        "id": "VLCL01",
        "Nom": "Valencia Gare",
        "latitude": 39.4593,
        "longitude": -0.3828
    },
    {
        "id": "FNIL03",
        "Nom": "Nimes Gare",
        "latitude": 43.8312,
        "longitude": 4.3678
    },
    {
        "id": "NCLS03",
        "Nom": "Sunderland",
        "latitude": 54.9115,
        "longitude": -1.4226
    },
    {
        "id": "LLAC01",
        "Nom": "Lulea",
        "latitude": 65.6039,
        "longitude": 22.1348
    },
    {
        "id": "BIAT01",
        "Nom": "Bastia Aeroport",
        "latitude": 42.5476,
        "longitude": 9.4794
    },
    {
        "id": "MELE09",
        "Nom": "Melbourne Clayton",
        "latitude": -37.9205,
        "longitude": 145.1369
    },
    {
        "id": "ESSS01",
        "Nom": "Essen South Werden 24H-Service",
        "latitude": 51.3789,
        "longitude": 6.9382
    },
    {
        "id": "ZPQN02",
        "Nom": "Lingen",
        "latitude": 52.5305,
        "longitude": 7.3441
    },
    {
        "id": "BCNC09",
        "Nom": "Barcelone PobleNou - Sant Martí",
        "latitude": 41.415,
        "longitude": 2.2069
    },
    {
        "id": "ROMC01",
        "Nom": "Rome V. Veneto Park Villa Borghese",
        "latitude": 41.9091,
        "longitude": 12.4903
    },
    {
        "id": "AJAT01",
        "Nom": "Ajaccio Aeroport",
        "latitude": 41.9197,
        "longitude": 8.7927
    },
    {
        "id": "PLJC01",
        "Nom": "Plauen",
        "latitude": 50.4902,
        "longitude": 12.1262
    },
    {
        "id": "MUCN05",
        "Nom": "Unterschleissheim 24H-Service",
        "latitude": 48.2819,
        "longitude": 11.5722
    },
    {
        "id": "JNBT01",
        "Nom": "Johannesburg Aeroport",
        "latitude": -26.1335,
        "longitude": 28.2306
    },
    {
        "id": "TLSL02",
        "Nom": "Toulouse Gare",
        "latitude": 43.6119,
        "longitude": 1.453
    },
    {
        "id": "HKTT01",
        "Nom": "Phuket International Aeroport",
        "latitude": 8.111,
        "longitude": 98.3042
    },
    {
        "id": "GROT01",
        "Nom": "Gerona Aeroport",
        "latitude": 41.8993,
        "longitude": 2.7694
    },
    {
        "id": "MUCC01",
        "Nom": "Munich City (Till 12Pm)",
        "latitude": 48.1435,
        "longitude": 11.5573
    },
    {
        "id": "QFCN01",
        "Nom": "Maisons Alfort",
        "latitude": 48.8068,
        "longitude": 2.4391
    },
    {
        "id": "SAYC01",
        "Nom": "Siena",
        "latitude": 43.3222,
        "longitude": 11.3508
    },
    {
        "id": "SHJT01",
        "Nom": "Sharjah Int'L Aeroport",
        "latitude": 25.3219,
        "longitude": 55.52
    },
    {
        "id": "MELN13",
        "Nom": "Melbourne Campbellfield",
        "latitude": -37.6675,
        "longitude": 144.961
    },
    {
        "id": "GRXL01",
        "Nom": "Granada Gare",
        "latitude": 37.185,
        "longitude": -3.6088
    },
    {
        "id": "DUSC01",
        "Nom": "Dusseldorf City (No Truck Return)",
        "latitude": 51.2205,
        "longitude": 6.7899
    },
    {
        "id": "ZOCC01",
        "Nom": "Luedenscheid",
        "latitude": 51.2274,
        "longitude": 7.6467
    },
    {
        "id": "AHOT02",
        "Nom": "Alghero Aeroport /Sardaigne-Italie",
        "latitude": 40.6311,
        "longitude": 8.2963
    },
    {
        "id": "NCYX01",
        "Nom": "Annecy",
        "latitude": 45.9011,
        "longitude": 6.1192
    },
    {
        "id": "AYTT01",
        "Nom": "Antalya Aeroport Domestique",
        "latitude": 36.9122,
        "longitude": 30.8018
    },
    {
        "id": "GVAC01",
        "Nom": "Geneve, Centre Ville",
        "latitude": 46.213,
        "longitude": 6.145
    },
    {
        "id": "LCAT01",
        "Nom": "Larnaca Aeroport",
        "latitude": 34.8711,
        "longitude": 33.608
    },
    {
        "id": "KSDC01",
        "Nom": "Karlstad",
        "latitude": 59.3836,
        "longitude": 13.4772
    },
    {
        "id": "HVBC02",
        "Nom": "Hervey Bay City",
        "latitude": -25.3093,
        "longitude": 152.8896
    },
    {
        "id": "BIOL01",
        "Nom": "Bilbao Gare",
        "latitude": 43.2613,
        "longitude": -2.9275
    },
    {
        "id": "MXPT02",
        "Nom": "Milan Malpensa Aeroport T2",
        "latitude": 45.649,
        "longitude": 8.7217
    },
    {
        "id": "DPOT02",
        "Nom": "Devonport Aeroport",
        "latitude": -41.1721,
        "longitude": 146.4275
    },
    {
        "id": "RAKC01",
        "Nom": "Marrakech",
        "latitude": 31.6363,
        "longitude": -8.0134
    },
    {
        "id": "RVNT01",
        "Nom": "Rovaniemi Aeroport",
        "latitude": 66.558,
        "longitude": 25.8273
    },
    {
        "id": "BDBC02",
        "Nom": "Bundaberg City",
        "latitude": -24.8818,
        "longitude": 152.3256
    },
    {
        "id": "RMMC02",
        "Nom": "Santarem",
        "latitude": 39.2299,
        "longitude": -8.6876
    },
    {
        "id": "KRNC01",
        "Nom": "Kiruna",
        "latitude": 67.8485,
        "longitude": 20.266
    },
    {
        "id": "ZRHC04",
        "Nom": "Zurich, Seefeld",
        "latitude": 47.358,
        "longitude": 8.5528
    },
    {
        "id": "BNKC01",
        "Nom": "Ballina City",
        "latitude": -28.8384,
        "longitude": 153.5553
    },
    {
        "id": "MUCE05",
        "Nom": "Erding",
        "latitude": 48.312,
        "longitude": 11.8882
    },
    {
        "id": "GROL01",
        "Nom": "Gerona Gare",
        "latitude": 41.9793,
        "longitude": 2.8174
    },
    {
        "id": "BREC01",
        "Nom": "Bremen (Till 12Pm Open)",
        "latitude": 53.0831,
        "longitude": 8.8079
    },
    {
        "id": "LYSS03",
        "Nom": "Lyon Venissieux Utilitaires",
        "latitude": 45.7072,
        "longitude": 4.8772
    },
    {
        "id": "ORKT01",
        "Nom": "Cork Aeroport",
        "latitude": 51.8487,
        "longitude": -8.4918
    },
    {
        "id": "ROMX03",
        "Nom": "Rome Tiburtina Stazione Fs",
        "latitude": 41.9112,
        "longitude": 12.5286
    },
    {
        "id": "QGNX01",
        "Nom": "Tarragona Gare",
        "latitude": 41.1927,
        "longitude": 1.271
    },
    {
        "id": "BERE01",
        "Nom": "Berlin East Lichtenberg",
        "latitude": 52.5258,
        "longitude": 13.5
    },
    {
        "id": "ROMC07",
        "Nom": "Rome Prati Fiscali",
        "latitude": 41.9454,
        "longitude": 12.5141
    },
    {
        "id": "DIJX01",
        "Nom": "Dijon Gare Sncf",
        "latitude": 47.3241,
        "longitude": 5.0275
    },
    {
        "id": "EMAC01",
        "Nom": "Nottingham Livraisons",
        "latitude": 52.9684,
        "longitude": -1.06
    },
    {
        "id": "LWFC01",
        "Nom": "Ludwigshafen",
        "latitude": 49.4844,
        "longitude": 8.4307
    },
    {
        "id": "BNES02",
        "Nom": "Brisbane Archerfield",
        "latitude": -27.5694,
        "longitude": 153.0239
    },
    {
        "id": "KRKT01",
        "Nom": "Krakow Aeroport",
        "latitude": 50.0721,
        "longitude": 19.8013
    },
    {
        "id": "QBON03",
        "Nom": "Recklinghausen",
        "latitude": 51.5697,
        "longitude": 7.1992
    },
    {
        "id": "ESSC01",
        "Nom": "Essen 24H Open East",
        "latitude": 51.4635,
        "longitude": 7.0168
    },
    {
        "id": "GWYC01",
        "Nom": "Galway City Centre",
        "latitude": 53.2865,
        "longitude": -9.0458
    },
    {
        "id": "LISC05",
        "Nom": "Lisbonne Centre Ville-Alameda",
        "latitude": 38.7374,
        "longitude": -9.1346
    },
    {
        "id": "BXPC01",
        "Nom": "Bottrop",
        "latitude": 51.5084,
        "longitude": 6.9345
    },
    {
        "id": "VCEC01",
        "Nom": "Venise Centre Ville",
        "latitude": 45.4385,
        "longitude": 12.3182
    },
    {
        "id": "PERN02",
        "Nom": "PERTH OSBORNE PARK",
        "latitude": -31.9047,
        "longitude": 115.8208
    },
    {
        "id": "ADBT03",
        "Nom": "Izmir Adnan Menderes Aéroport International",
        "latitude": 38.2973,
        "longitude": 27.1522
    },
    {
        "id": "PERE04",
        "Nom": "Gallois de Perth",
        "latitude": -31.9892,
        "longitude": 115.9538
    },
    {
        "id": "LISW03",
        "Nom": "Oeiras Quinta Da Fonte",
        "latitude": 38.7107,
        "longitude": -9.2997
    },
    {
        "id": "OPOX01",
        "Nom": "Porto Campanha Rrs",
        "latitude": 41.1485,
        "longitude": -8.5856
    },
    {
        "id": "LHAN01",
        "Nom": "Offenburg Bohlsbach",
        "latitude": 48.4825,
        "longitude": 7.9481
    },
    {
        "id": "MELN07",
        "Nom": "Melbourne Preston",
        "latitude": -37.6931,
        "longitude": 145.0391
    },
    {
        "id": "MPLX02",
        "Nom": "Montpellier Lgv Sud De France",
        "latitude": 43.5951,
        "longitude": 3.9243
    },
    {
        "id": "OLBC04",
        "Nom": "Olbia Dt",
        "latitude": 40.922,
        "longitude": 9.5037
    },
    {
        "id": "ZQEC01",
        "Nom": "Stolberg 24H-Service",
        "latitude": 50.7859,
        "longitude": 6.2226
    },
    {
        "id": "BRSS01",
        "Nom": "Yeovil",
        "latitude": 50.9528,
        "longitude": -2.6054
    },
    {
        "id": "LCZC04",
        "Nom": "Leicester St Matthews Way",
        "latitude": 52.6398,
        "longitude": -1.1278
    },
    {
        "id": "SYDC03",
        "Nom": "Sydney Alexandria",
        "latitude": -33.905,
        "longitude": 151.2033
    },
    {
        "id": "FDHC02",
        "Nom": "Friedrichshafen City",
        "latitude": 47.6545,
        "longitude": 9.4718
    },
    {
        "id": "YULO02",
        "Nom": "Aéroport de Montréal",
        "latitude": 45.4817,
        "longitude": -73.7511
    },
    {
        "id": "FMOE01",
        "Nom": "Osnabrück Schinkel",
        "latitude": 52.268,
        "longitude": 8.1003
    },
    {
        "id": "ZRHC01",
        "Nom": "Zurich, Centre Ville, Gare Centrale",
        "latitude": 47.3819,
        "longitude": 8.5321
    },
    {
        "id": "MKYT01",
        "Nom": "Mackay Aeroport",
        "latitude": -21.1751,
        "longitude": 149.1818
    },
    {
        "id": "ZINR01",
        "Nom": "Interlaken, Hotel Metropole",
        "latitude": 46.6859,
        "longitude": 7.8557
    },
    {
        "id": "QIIC02",
        "Nom": "Lindau",
        "latitude": 47.5489,
        "longitude": 9.7283
    },
    {
        "id": "TIAT01",
        "Nom": "Tirana Aeroport",
        "latitude": 41.4199,
        "longitude": 19.7124
    },
    {
        "id": "CMNT01",
        "Nom": "Casablanca Aeroport",
        "latitude": 33.3752,
        "longitude": -7.5814
    },
    {
        "id": "GOAT01",
        "Nom": "Genes Aeroport",
        "latitude": 44.4151,
        "longitude": 8.8508
    },
    {
        "id": "BCNC05",
        "Nom": "Barcelona Gran Via",
        "latitude": 41.3926,
        "longitude": 2.1727
    },
    {
        "id": "EDIS01",
        "Nom": "Edinburgh Leith",
        "latitude": 55.9733,
        "longitude": -3.1569
    },
    {
        "id": "ORDT02",
        "Nom": "Aéroport international O'Hare de Chicago",
        "latitude": 41.9887,
        "longitude": -87.9052
    },
    {
        "id": "JEVE01",
        "Nom": "Melun (Dammarie Les Lys)",
        "latitude": 48.5264,
        "longitude": 2.6461
    },
    {
        "id": "CFEC02",
        "Nom": "Clermont Ferrand",
        "latitude": 45.7778,
        "longitude": 3.1158
    },
    {
        "id": "JFMW02",
        "Nom": "PERTH FREMANTLE BEACONSFIELD",
        "latitude": -32.0633,
        "longitude": 115.772
    },
    {
        "id": "LWUC04",
        "Nom": "Lugo",
        "latitude": 43.0309,
        "longitude": -7.5716
    },
    {
        "id": "MADC11",
        "Nom": "Madrid Las Tablas",
        "latitude": 40.5132,
        "longitude": -3.675
    },
    {
        "id": "BIQT01",
        "Nom": "Biarritz Aeroport",
        "latitude": 43.4724,
        "longitude": -1.5314
    },
    {
        "id": "CGNE04",
        "Nom": "Cologne Holweide",
        "latitude": 50.9723,
        "longitude": 7.0526
    },
    {
        "id": "STRC03",
        "Nom": "Stuttgart City",
        "latitude": 48.7824,
        "longitude": 9.1783
    },
    {
        "id": "FSCT01",
        "Nom": "Figari Aeroport",
        "latitude": 41.4977,
        "longitude": 9.0985
    },
    {
        "id": "CURO01",
        "Nom": "Curacao Aeroport",
        "latitude": 12.185,
        "longitude": -68.9606
    },
    {
        "id": "PDLT02",
        "Nom": "Ponta Delgada Aeroport",
        "latitude": 37.7494,
        "longitude": -25.7104
    },
    {
        "id": "FUHC01",
        "Nom": "Fuerth",
        "latitude": 49.4862,
        "longitude": 11.007
    },
    {
        "id": "AGAT01",
        "Nom": "Agadir Al Massira Aeroport",
        "latitude": 30.3312,
        "longitude": -9.4109
    },
    {
        "id": "SKGT02",
        "Nom": "Aéroport de Thessalonique",
        "latitude": 40.5324,
        "longitude": 22.9942
    },
    {
        "id": "LYSL02",
        "Nom": "Lyon Perrache Gare",
        "latitude": 45.7489,
        "longitude": 4.8251
    },
    {
        "id": "GINW02",
        "Nom": "Wetzlar",
        "latitude": 50.5597,
        "longitude": 8.4848
    },
    {
        "id": "AART01",
        "Nom": "Aarhus Aeroport",
        "latitude": 56.3081,
        "longitude": 10.6277
    },
    {
        "id": "CWLC08",
        "Nom": "Cardiff Roath",
        "latitude": 51.4939,
        "longitude": -3.1475
    },
    {
        "id": "ROTT01",
        "Nom": "Rotorua Aeroport",
        "latitude": -38.1094,
        "longitude": 176.3173
    },
    {
        "id": "ZJPC01",
        "Nom": "Montreux, Hotel Montreux-Palace",
        "latitude": 46.4381,
        "longitude": 6.9069
    },
    {
        "id": "LONS14",
        "Nom": "London Wandsworth",
        "latitude": 51.4917,
        "longitude": -0.79
    },
    {
        "id": "KYNC01",
        "Nom": "Milton Keynes",
        "latitude": 52.0506,
        "longitude": -0.7983
    },
    {
        "id": "EFRE01",
        "Nom": "Albufeira Sheraton Pine Cliffs",
        "latitude": 37.0941,
        "longitude": -8.1757
    },
    {
        "id": "LEYC01",
        "Nom": "Leer",
        "latitude": 53.2535,
        "longitude": 7.5272
    },
    {
        "id": "CXZC02",
        "Nom": "Cascais Norte",
        "latitude": 38.7165,
        "longitude": -9.4382
    },
    {
        "id": "ADLN03",
        "Nom": "ADELAIDE COLLINSWOOD",
        "latitude": -34.8868,
        "longitude": 138.616
    },
    {
        "id": "BBJC01",
        "Nom": "Bitburg City",
        "latitude": 49.9635,
        "longitude": 6.5223
    },
    {
        "id": "ZPUC02",
        "Nom": "Salzgitter",
        "latitude": 52.1615,
        "longitude": 10.3538
    },
    {
        "id": "XCTC01",
        "Nom": "La Ciotat",
        "latitude": 43.1893,
        "longitude": 5.6042
    },
    {
        "id": "PERE03",
        "Nom": "PERTH BASSENDEAN",
        "latitude": -31.9064,
        "longitude": 115.9321
    },
    {
        "id": "FMMT01",
        "Nom": "Memmingen Aeroport",
        "latitude": 47.9898,
        "longitude": 10.2325
    },
    {
        "id": "LISC01",
        "Nom": "Lisbonne Centre Ville Av Antonio Augusto",
        "latitude": 38.729,
        "longitude": -9.1493
    },
    {
        "id": "SZZT01",
        "Nom": "Szczecin Aeroport",
        "latitude": 53.5932,
        "longitude": 14.8946
    },
    {
        "id": "KRKR01",
        "Nom": "Krakow Centre ville",
        "latitude": 50.0476,
        "longitude": 19.9525
    },
    {
        "id": "WDOC01",
        "Nom": "Viana Do Castelo",
        "latitude": 41.7056,
        "longitude": -8.8255
    },
    {
        "id": "OVDC03",
        "Nom": "Oviedo",
        "latitude": 43.3647,
        "longitude": -5.8569
    },
    {
        "id": "SYDE01",
        "Nom": "Sydney Darling Harbour",
        "latitude": -33.8712,
        "longitude": 151.1977
    },
    {
        "id": "PLHC01",
        "Nom": "Plymouth",
        "latitude": 50.369,
        "longitude": -4.1549
    },
    {
        "id": "VCEC05",
        "Nom": "Mestre - Venezia",
        "latitude": 45.4819,
        "longitude": 12.2358
    },
    {
        "id": "MILC02",
        "Nom": "Milan Sarca",
        "latitude": 45.5035,
        "longitude": 9.2031
    },
    {
        "id": "BNES04",
        "Nom": "Brisbane Loganholme",
        "latitude": -27.6672,
        "longitude": 153.1764
    },
    {
        "id": "QXBC02",
        "Nom": "Aix En Provence",
        "latitude": 43.5287,
        "longitude": 5.4401
    },
    {
        "id": "ZRHW01",
        "Nom": "Zurich, Altstetten",
        "latitude": 47.38,
        "longitude": 8.4903
    },
    {
        "id": "BXGC03",
        "Nom": "Bendigo - À partir du 03.03.2022",
        "latitude": -36.804,
        "longitude": 144.2423
    },
    {
        "id": "QLRC01",
        "Nom": "Leiria",
        "latitude": 39.7519,
        "longitude": -8.8088
    },
    {
        "id": "NTEL02",
        "Nom": "Nantes Gare Sud",
        "latitude": 47.2155,
        "longitude": -1.5407
    },
    {
        "id": "ZCGW02",
        "Nom": "Bergisch-Gladbach",
        "latitude": 50.9841,
        "longitude": 7.105
    },
    {
        "id": "PTPT01",
        "Nom": "Pointe A Pitre Aeroport",
        "latitude": 16.2676,
        "longitude": -61.536
    },
    {
        "id": "XNEE01",
        "Nom": "Tredegar",
        "latitude": 51.7865,
        "longitude": -3.2604
    },
    {
        "id": "CGNW02",
        "Nom": "Cologne (Till12Pm Ehrenfeld)",
        "latitude": 50.9459,
        "longitude": 6.9006
    },
    {
        "id": "SFPC01",
        "Nom": "Gold Coast Surfers Paradise",
        "latitude": -28.0296,
        "longitude": 153.4313
    },
    {
        "id": "NOCT01",
        "Nom": "Knock Aeroport",
        "latitude": 53.9141,
        "longitude": -8.8132
    },
    {
        "id": "BREN25",
        "Nom": "Bremen Nutzfahrzeuge",
        "latitude": 53.0917,
        "longitude": 8.7023
    },
    {
        "id": "ZQRC01",
        "Nom": "Witten / Ruhr",
        "latitude": 51.449,
        "longitude": 7.3265
    },
    {
        "id": "MVDT01",
        "Nom": "Montevideo International Aeroport",
        "latitude": -34.8415,
        "longitude": -56.0236
    },
    {
        "id": "KSFC01",
        "Nom": "Kassel Till 12Pm",
        "latitude": 51.3106,
        "longitude": 9.5151
    },
    {
        "id": "DRWC01",
        "Nom": "Darwin City",
        "latitude": -12.4637,
        "longitude": 130.8397
    },
    {
        "id": "SCNC01",
        "Nom": "Sarrebruck",
        "latitude": 49.2269,
        "longitude": 7.0216
    },
    {
        "id": "BNEN03",
        "Nom": "Brisbane Brendale",
        "latitude": -27.3264,
        "longitude": 152.9792
    },
    {
        "id": "KKYE01",
        "Nom": "Naas",
        "latitude": 53.214,
        "longitude": -6.6841
    },
    {
        "id": "FRAT02",
        "Nom": "Francfort Aeroport T2",
        "latitude": 50.0486,
        "longitude": 8.5587
    },
    {
        "id": "RAKT01",
        "Nom": "Marrakech Aeroport",
        "latitude": 31.6022,
        "longitude": -8.0247
    },
    {
        "id": "DXBC02",
        "Nom": "Emirates Towers Jumeirah Hotel",
        "latitude": 25.2172,
        "longitude": 55.2811
    },
    {
        "id": "LONN04",
        "Nom": "London Enfield",
        "latitude": 51.6642,
        "longitude": -0.0446
    },
    {
        "id": "HDBC01",
        "Nom": "Heidelberg",
        "latitude": 49.4078,
        "longitude": 8.6725
    },
    {
        "id": "ZAZL01",
        "Nom": "Zaragoza Gare",
        "latitude": 41.6597,
        "longitude": -0.912
    },
    {
        "id": "MELE02",
        "Nom": "Melbourne Dandenong",
        "latitude": -37.9993,
        "longitude": 145.2237
    },
    {
        "id": "FLFC01",
        "Nom": "Flensburg",
        "latitude": 54.7716,
        "longitude": 9.4237
    },
    {
        "id": "KTAT02",
        "Nom": "KARRATHA AIRPORT",
        "latitude": -20.7088,
        "longitude": 116.7701
    },
    {
        "id": "ZNET01",
        "Nom": "NEWMAN AIRPORT",
        "latitude": -23.4161,
        "longitude": 119.8026
    },
    {
        "id": "QXBW01",
        "Nom": "Aix En Provence La Pioline",
        "latitude": 43.5114,
        "longitude": 5.4194
    },
    {
        "id": "CDIL01",
        "Nom": "Cadiz Gare",
        "latitude": 36.5295,
        "longitude": -6.2891
    },
    {
        "id": "MLAO01",
        "Nom": "Malte Aeroport International",
        "latitude": 35.8481,
        "longitude": 14.4982
    },
    {
        "id": "MRSC01",
        "Nom": "Marseille Prado ",
        "latitude": 43.2799,
        "longitude": 5.3874
    },
    {
        "id": "HVBT02",
        "Nom": "Hervey Bay Aeroport",
        "latitude": -25.3216,
        "longitude": 152.8851
    },
    {
        "id": "ATHC06",
        "Nom": "Ville d’Athènes",
        "latitude": 37.9887,
        "longitude": 23.7052
    },
    {
        "id": "SHQC02",
        "Nom": "Gold Coast Southport",
        "latitude": -27.9748,
        "longitude": 153.3988
    },
    {
        "id": "BCNS08",
        "Nom": "VILANOVA I LA GELTRU",
        "latitude": 41.2266,
        "longitude": 1.7405
    },
    {
        "id": "XXPC02",
        "Nom": "Potsdam Altstadt Ville",
        "latitude": 52.3937,
        "longitude": 13.0599
    },
    {
        "id": "PSRC01",
        "Nom": "Pescara Dt",
        "latitude": 42.4681,
        "longitude": 14.2043
    },
    {
        "id": "LJUX01",
        "Nom": "Ljubljana Centre ville Railway Station",
        "latitude": 46.0568,
        "longitude": 14.5082
    },
    {
        "id": "MILC19",
        "Nom": "Milan Viale Umbria",
        "latitude": 45.4496,
        "longitude": 9.2123
    },
    {
        "id": "PMOL01",
        "Nom": "Palermo Notarbartolo Gare",
        "latitude": 38.1322,
        "longitude": 13.3425
    },
    {
        "id": "SNNT01",
        "Nom": "Shannon / Limerick Aeroport",
        "latitude": 52.6925,
        "longitude": -8.9225
    },
    {
        "id": "LSTC05",
        "Nom": "Launceston City",
        "latitude": -41.4344,
        "longitude": 147.142
    },
    {
        "id": "MHGC01",
        "Nom": "Mannheim Kaefertal",
        "latitude": 49.5067,
        "longitude": 8.5057
    },
    {
        "id": "CQMC05",
        "Nom": "Ciudad Real",
        "latitude": 38.9806,
        "longitude": -3.9161
    },
    {
        "id": "PMEC01",
        "Nom": "Portsmouth Hilsea",
        "latitude": 50.8303,
        "longitude": -1.062
    },
    {
        "id": "DXBS01",
        "Nom": "Duabil Hills mall",
        "latitude": 25.1044,
        "longitude": 55.2372
    },
    {
        "id": "NTEC02",
        "Nom": "Nantes Forum D'Orvault",
        "latitude": 47.2522,
        "longitude": -1.6225
    },
    {
        "id": "BOHC06",
        "Nom": "Poole",
        "latitude": 50.7538,
        "longitude": -1.9307
    },
    {
        "id": "PARW02",
        "Nom": "Montigny Le Bretonneux",
        "latitude": 48.777,
        "longitude": 2.0168
    },
    {
        "id": "MANW02",
        "Nom": "Preston",
        "latitude": 53.768,
        "longitude": -2.7542
    },
    {
        "id": "ZRWC02",
        "Nom": "Rastatt",
        "latitude": 48.8625,
        "longitude": 8.2315
    },
    {
        "id": "DUBS01",
        "Nom": "Dublin Sud",
        "latitude": 53.292,
        "longitude": -6.3731
    },
    {
        "id": "DGHC01",
        "Nom": "Drogheda",
        "latitude": 53.7022,
        "longitude": -6.3802
    },
    {
        "id": "DTMT01",
        "Nom": "Dortmund Aeroport",
        "latitude": 51.5185,
        "longitude": 7.6145
    },
    {
        "id": "QKZC01",
        "Nom": "Konstanz",
        "latitude": 47.6728,
        "longitude": 9.1613
    },
    {
        "id": "ERFC01",
        "Nom": "Erfurt",
        "latitude": 50.975,
        "longitude": 11.0619
    },
    {
        "id": "BLLT01",
        "Nom": "Billund Aeroport",
        "latitude": 55.7464,
        "longitude": 9.1484
    },
    {
        "id": "AOIT01",
        "Nom": "Ancona Aeroport",
        "latitude": 43.6076,
        "longitude": 13.3554
    },
    {
        "id": "ZEDC02",
        "Nom": "Euskirchen",
        "latitude": 50.6527,
        "longitude": 6.7905
    },
    {
        "id": "CBGN02",
        "Nom": "Peterborough",
        "latitude": 52.564,
        "longitude": -0.242
    },
    {
        "id": "AMMT01",
        "Nom": "Amman Aeroport",
        "latitude": 31.7229,
        "longitude": 35.9856
    },
    {
        "id": "YVRO01",
        "Nom": "Vancouver Aéroport",
        "latitude": 49.1937,
        "longitude": -123.1213
    },
    {
        "id": "CMFX01",
        "Nom": "Chambery",
        "latitude": 45.5707,
        "longitude": 5.9194
    },
    {
        "id": "KRNT01",
        "Nom": "Kiruna Aeroport",
        "latitude": 67.8255,
        "longitude": 20.3344
    },
    {
        "id": "SZDC02",
        "Nom": "Sheffield",
        "latitude": 53.3807,
        "longitude": -1.4281
    },
    {
        "id": "LILX02",
        "Nom": "Lille Gare Europe ",
        "latitude": 50.6395,
        "longitude": 3.076
    },
    {
        "id": "KGSO01",
        "Nom": "Aéroport de Kos",
        "latitude": 36.802,
        "longitude": 27.0919
    },
    {
        "id": "TRNC01",
        "Nom": "Turin Dt - Madama Cristina",
        "latitude": 45.0508,
        "longitude": 7.6779
    },
    {
        "id": "LIUL01",
        "Nom": "Libourne Gare",
        "latitude": 44.9157,
        "longitude": -0.2374
    },
    {
        "id": "NWIT01",
        "Nom": "Norwich Aeroport",
        "latitude": 52.6697,
        "longitude": 1.2773
    },
    {
        "id": "BWEL01",
        "Nom": "Braunschweig Gare",
        "latitude": 52.2511,
        "longitude": 10.5356
    },
    {
        "id": "MSRC01",
        "Nom": "Munster",
        "latitude": 51.94,
        "longitude": 7.6276
    },
    {
        "id": "LYSS01",
        "Nom": "Lyon Sud Ouest Brignais Utilitaires",
        "latitude": 45.6728,
        "longitude": 4.7749
    },
    {
        "id": "XRYT01",
        "Nom": "Jerez De La Frontera Aeroport",
        "latitude": 36.7518,
        "longitude": -6.0613
    },
    {
        "id": "TARC02",
        "Nom": "Taranto",
        "latitude": 40.4541,
        "longitude": 17.2573
    },
    {
        "id": "OBFW01",
        "Nom": "Munich - Pasing-Obermenzing",
        "latitude": 48.1493,
        "longitude": 11.4551
    },
    {
        "id": "NQYS03",
        "Nom": "Truro",
        "latitude": 50.2547,
        "longitude": -5.0467
    },
    {
        "id": "TNGT01",
        "Nom": "Tangier-Ibn Batouta Aeroport",
        "latitude": 35.8,
        "longitude": -5.8
    },
    {
        "id": "AGFX01",
        "Nom": "Agen Gare",
        "latitude": 44.2076,
        "longitude": 0.6209
    },
    {
        "id": "ZANC01",
        "Nom": "Monza",
        "latitude": 45.5899,
        "longitude": 9.2965
    },
    {
        "id": "GOXC01",
        "Nom": "Goeppingen",
        "latitude": 48.6981,
        "longitude": 9.6683
    },
    {
        "id": "SGEC01",
        "Nom": "Siegen",
        "latitude": 50.8808,
        "longitude": 8.0272
    },
    {
        "id": "QLHC01",
        "Nom": "Kelsterbach",
        "latitude": 50.0512,
        "longitude": 8.5423
    },
    {
        "id": "CFST03",
        "Nom": "Coffs Harbour Aeroport",
        "latitude": -30.323,
        "longitude": 153.1155
    },
    {
        "id": "MPHL02",
        "Nom": "Montelimar",
        "latitude": 44.5581,
        "longitude": 4.7451
    },
    {
        "id": "RANC04",
        "Nom": "Ravenna Centre Ville",
        "latitude": 44.3967,
        "longitude": 12.2145
    },
    {
        "id": "LGWO02",
        "Nom": "Terminal nord de l’aéroport de Londres-Gatwick",
        "latitude": 51.1598,
        "longitude": -0.1743
    },
    {
        "id": "XTSC01",
        "Nom": "Thonon Evian",
        "latitude": 46.3898,
        "longitude": 6.5053
    },
    {
        "id": "LJOC01",
        "Nom": "Lagos",
        "latitude": 37.1105,
        "longitude": -8.6787
    },
    {
        "id": "CATN01",
        "Nom": "Campo Raso - Sintra",
        "latitude": 38.8237,
        "longitude": -9.3533
    },
    {
        "id": "LNZC01",
        "Nom": "Linz",
        "latitude": 48.2503,
        "longitude": 14.2702
    },
    {
        "id": "CHWC01",
        "Nom": "Chemnitz Till 12Pm Open",
        "latitude": 50.8157,
        "longitude": 12.8819
    },
    {
        "id": "ISEW02",
        "Nom": "Iserlohn West Letmathe",
        "latitude": 51.3642,
        "longitude": 7.5962
    },
    {
        "id": "FDHT02",
        "Nom": "Friedrichshafen Ap Delivery",
        "latitude": 47.6518,
        "longitude": 9.4771
    },
    {
        "id": "ORMC01",
        "Nom": "Northampton",
        "latitude": 52.2224,
        "longitude": -0.8565
    },
    {
        "id": "DUDT01",
        "Nom": "Dunedin Aeroport",
        "latitude": -45.9259,
        "longitude": 170.2021
    },
    {
        "id": "PEGT04",
        "Nom": "Perugia Apt",
        "latitude": 43.0953,
        "longitude": 12.5025
    },
    {
        "id": "BRUN01",
        "Nom": "Bruxelles Zaventem Ville",
        "latitude": 50.8711,
        "longitude": 4.5011
    },
    {
        "id": "TLLT01",
        "Nom": "Tallinn Aeroport",
        "latitude": 59.4201,
        "longitude": 24.7936
    },
    {
        "id": "QSRC02",
        "Nom": "Salerno",
        "latitude": 40.6745,
        "longitude": 14.7714
    },
    {
        "id": "ERLC01",
        "Nom": "Erlangen",
        "latitude": 49.5864,
        "longitude": 11.0038
    },
    {
        "id": "ZPMC01",
        "Nom": "Regensburg",
        "latitude": 49.0003,
        "longitude": 12.1241
    },
    {
        "id": "UIPL01",
        "Nom": "Quimper",
        "latitude": 47.9934,
        "longitude": -4.0887
    },
    {
        "id": "CYQC03",
        "Nom": "Civitavecchia",
        "latitude": 42.0976,
        "longitude": 11.789
    },
    {
        "id": "ZRHW02",
        "Nom": "Zurich, Schlieren, Amag",
        "latitude": 47.4012,
        "longitude": 8.443
    },
    {
        "id": "FKBT01",
        "Nom": "Baden Airpark",
        "latitude": 48.7793,
        "longitude": 8.0701
    },
    {
        "id": "LBCC01",
        "Nom": "Luebeck",
        "latitude": 53.8725,
        "longitude": 10.667
    },
    {
        "id": "ERGC01",
        "Nom": "Merseburg",
        "latitude": 51.3473,
        "longitude": 11.9789
    },
    {
        "id": "ZNVC01",
        "Nom": "Koblenz",
        "latitude": 50.3797,
        "longitude": 7.5807
    },
    {
        "id": "BTST01",
        "Nom": "Bratislava Aeroport",
        "latitude": 48.17,
        "longitude": 17.1999
    },
    {
        "id": "RMSC01",
        "Nom": "Ramstein-Miesenbach",
        "latitude": 49.4392,
        "longitude": 7.5547
    },
    {
        "id": "TUNT01",
        "Nom": "Tunis Aeroport",
        "latitude": 36.8467,
        "longitude": 10.2184
    },
    {
        "id": "GOTN01",
        "Nom": "Gothenburg - Hisingen ",
        "latitude": 57.7337,
        "longitude": 11.9874
    },
    {
        "id": "JEAX01",
        "Nom": "Jaen-Bulevar",
        "latitude": 37.7829,
        "longitude": -3.7911
    },
    {
        "id": "NWBW02",
        "Nom": "Langen",
        "latitude": 49.9982,
        "longitude": 8.652
    },
    {
        "id": "CFUO01",
        "Nom": "Accueil à l’aéroport de Corfou",
        "latitude": 39.6125,
        "longitude": 19.9068
    },
    {
        "id": "NITL01",
        "Nom": "Niort Gare",
        "latitude": 46.3197,
        "longitude": -0.4563
    },
    {
        "id": "SYDW08",
        "Nom": "Sydney Penrith",
        "latitude": -33.7547,
        "longitude": 150.7056
    },
    {
        "id": "NEDN01",
        "Nom": "Maidstone",
        "latitude": 51.2351,
        "longitude": 0.5601
    },
    {
        "id": "OXZL01",
        "Nom": "Pozuelo El Barrial Gare",
        "latitude": 40.4442,
        "longitude": -3.8091
    },
    {
        "id": "XDAX01",
        "Nom": "Dax Gare",
        "latitude": 43.7205,
        "longitude": -1.0505
    },
    {
        "id": "HHNT01",
        "Nom": "Frankfurt Hahn Aeroport",
        "latitude": 49.947,
        "longitude": 7.2712
    },
    {
        "id": "OBFS01",
        "Nom": "Munich South Sendling",
        "latitude": 48.1,
        "longitude": 11.5311
    },
    {
        "id": "SEAT02",
        "Nom": "Seattle Aéroport",
        "latitude": 47.4526,
        "longitude": -122.3102
    },
    {
        "id": "SJJT01",
        "Nom": "Sarajevo Aeroport",
        "latitude": 43.8263,
        "longitude": 18.3368
    },
    {
        "id": "TRST01",
        "Nom": "Trieste Aeroport",
        "latitude": 45.8209,
        "longitude": 13.4859
    },
    {
        "id": "WLGP01",
        "Nom": "Wellington Station De Ferry",
        "latitude": -41.2646,
        "longitude": 174.787
    },
    {
        "id": "TFGC01",
        "Nom": "Tuebingen",
        "latitude": 48.5234,
        "longitude": 9.03
    },
    {
        "id": "OENC01",
        "Nom": "Oldenburg/Oldenburg",
        "latitude": 53.1439,
        "longitude": 8.2187
    },
    {
        "id": "LLBC01",
        "Nom": "Ludwigsburg",
        "latitude": 48.9022,
        "longitude": 9.1914
    },
    {
        "id": "PMIC01",
        "Nom": "Mallorca Palma Av Gabriel Roca",
        "latitude": 39.5517,
        "longitude": 2.6227
    },
    {
        "id": "NTEC03",
        "Nom": "Nantes Est",
        "latitude": 47.2515,
        "longitude": -1.519
    },
    {
        "id": "KSCT01",
        "Nom": "Kosice Aeroport",
        "latitude": 48.6726,
        "longitude": 21.237
    },
    {
        "id": "GEXN02",
        "Nom": "Geelong",
        "latitude": -38.1419,
        "longitude": 144.3555
    },
    {
        "id": "DOHT01",
        "Nom": "Doha Aeroport",
        "latitude": 25.2634,
        "longitude": 51.6153
    },
    {
        "id": "GFHS01",
        "Nom": "Bonn South Bad Godesberg",
        "latitude": 50.6771,
        "longitude": 7.1688
    },
    {
        "id": "DVEE01",
        "Nom": "Dartford",
        "latitude": 51.4491,
        "longitude": 0.2177
    },
    {
        "id": "REIS03",
        "Nom": "Basingstoke",
        "latitude": 51.2513,
        "longitude": -1.1031
    },
    {
        "id": "BERE02",
        "Nom": "Berlin Southeast Adlershof",
        "latitude": 52.4295,
        "longitude": 13.5311
    },
    {
        "id": "FNCC01",
        "Nom": "Funchal Centre Ville",
        "latitude": 32.6385,
        "longitude": -16.928
    },
    {
        "id": "BJZC03",
        "Nom": "Badajoz",
        "latitude": 38.8722,
        "longitude": -6.9622
    },
    {
        "id": "BERW04",
        "Nom": "Berlin Spandau",
        "latitude": 52.5355,
        "longitude": 13.1952
    },
    {
        "id": "PNAC01",
        "Nom": "Pamplona",
        "latitude": 42.8066,
        "longitude": -1.6613
    },
    {
        "id": "SPMS01",
        "Nom": "Trier Ville",
        "latitude": 49.7596,
        "longitude": 6.6576
    },
    {
        "id": "WTBT02",
        "Nom": "Toowoomba Wellcamp Aeroport",
        "latitude": -27.5593,
        "longitude": 151.7963
    },
    {
        "id": "ZPSC01",
        "Nom": "Rüsselsheim",
        "latitude": 49.9762,
        "longitude": 8.432
    },
    {
        "id": "BQXC02",
        "Nom": "Burgos",
        "latitude": 42.3711,
        "longitude": -3.6669
    },
    {
        "id": "LEJC01",
        "Nom": "Leipzig",
        "latitude": 51.3261,
        "longitude": 12.3023
    },
    {
        "id": "SLMC03",
        "Nom": "Salamanca",
        "latitude": 40.9729,
        "longitude": -5.6479
    },
    {
        "id": "BNEW03",
        "Nom": "Brisbane Ipswich",
        "latitude": -27.6129,
        "longitude": 152.7756
    },
    {
        "id": "OPOC04",
        "Nom": "Porto/Maia",
        "latitude": 41.2361,
        "longitude": -8.6661
    },
    {
        "id": "BUYC02",
        "Nom": "BUNBURY",
        "latitude": -33.3342,
        "longitude": 115.64
    },
    {
        "id": "BYUC01",
        "Nom": "Bayreuth",
        "latitude": 49.9471,
        "longitude": 11.5857
    },
    {
        "id": "PBOT01",
        "Nom": "PARABURDOO AIRPORT",
        "latitude": -23.1739,
        "longitude": 117.7479
    },
    {
        "id": "QFLE01",
        "Nom": "Freilassing",
        "latitude": 47.8409,
        "longitude": 12.9828
    },
    {
        "id": "PHXT02",
        "Nom": "Phoenix Aéroport",
        "latitude": 33.4376,
        "longitude": -112.0078
    },
    {
        "id": "YYZO02",
        "Nom": "Toronto Aéroport",
        "latitude": 43.6961,
        "longitude": -79.6305
    },
    {
        "id": "CBRC01",
        "Nom": "Canberra City",
        "latitude": -35.2129,
        "longitude": 149.1416
    },
    {
        "id": "MADN07",
        "Nom": "Collado Villalba",
        "latitude": 40.6344,
        "longitude": -4.0094
    },
    {
        "id": "LRHT01",
        "Nom": "La Rochelle Aeroport",
        "latitude": 46.1758,
        "longitude": -1.1941
    },
    {
        "id": "EMAW08",
        "Nom": "Derby",
        "latitude": 52.9232,
        "longitude": -1.4634
    },
    {
        "id": "RSQC01",
        "Nom": "Rosenheim",
        "latitude": 47.8478,
        "longitude": 12.1196
    },
    {
        "id": "MELW05",
        "Nom": "PASSAGE À NIVEAU DE MELBOURNE",
        "latitude": -37.881,
        "longitude": 144.7021
    },
    {
        "id": "HELE01",
        "Nom": "Helsinki Herttoniemi",
        "latitude": 60.2029,
        "longitude": 25.0451
    },
    {
        "id": "MCYC02",
        "Nom": "Maroochydore Sud - Warana",
        "latitude": -26.7299,
        "longitude": 153.1287
    },
    {
        "id": "ZOON01",
        "Nom": "Mülheim Ruhr",
        "latitude": 51.4287,
        "longitude": 6.8907
    },
    {
        "id": "GUTC01",
        "Nom": "Guetersloh",
        "latitude": 51.9142,
        "longitude": 8.3805
    },
    {
        "id": "CPTC03",
        "Nom": "Cape Town City Centre",
        "latitude": -33.917,
        "longitude": 18.4203
    },
    {
        "id": "ZCKC02",
        "Nom": "Bruehl",
        "latitude": 50.8297,
        "longitude": 6.9272
    },
    {
        "id": "AGPW01",
        "Nom": "Malaga Furgonetas",
        "latitude": 36.704,
        "longitude": -4.4764
    },
    {
        "id": "HNUC03",
        "Nom": "Hanau",
        "latitude": 50.1216,
        "longitude": 8.9256
    },
    {
        "id": "GRXT01",
        "Nom": "Grenada Aeroport",
        "latitude": 37.1851,
        "longitude": -3.7727
    },
    {
        "id": "ZRHC02",
        "Nom": "Zurich, Nord, Oerlikon",
        "latitude": 47.4142,
        "longitude": 8.5533
    },
    {
        "id": "ADLS01",
        "Nom": "Adelaide Clovelly Park",
        "latitude": -34.9722,
        "longitude": 138.5736
    },
    {
        "id": "LILT02",
        "Nom": "Lille Aéroport ",
        "latitude": 50.573,
        "longitude": 3.1096
    },
    {
        "id": "DUSW04",
        "Nom": "Erkelenz",
        "latitude": 51.069,
        "longitude": 6.3021
    },
    {
        "id": "OBRC01",
        "Nom": "Oberhausen",
        "latitude": 51.4909,
        "longitude": 6.8385
    },
    {
        "id": "LHHL01",
        "Nom": "Leon Gare",
        "latitude": 42.5976,
        "longitude": -5.583
    },
    {
        "id": "PLOT01",
        "Nom": "Port Lincoln Aeroport",
        "latitude": -34.6035,
        "longitude": 135.8744
    },
    {
        "id": "LUXC02",
        "Nom": "Luxembourg ville",
        "latitude": 49.5387,
        "longitude": 6.0244
    },
    {
        "id": "PRMC01",
        "Nom": "PRAIA DA ROCHA",
        "latitude": 37.1194,
        "longitude": -8.5361
    },
    {
        "id": "QUQC01",
        "Nom": "Caceres",
        "latitude": 39.4683,
        "longitude": -6.3814
    },
    {
        "id": "NRZW01",
        "Nom": "Manresa",
        "latitude": 41.732,
        "longitude": 1.8361
    },
    {
        "id": "DXBC08",
        "Nom": "Dubai Ville Livraison Et Reprise",
        "latitude": 25.1601,
        "longitude": 55.2375
    },
    {
        "id": "STOC06",
        "Nom": "Stockholm Ulvsunda",
        "latitude": 59.348,
        "longitude": 17.9589
    },
    {
        "id": "NSNT01",
        "Nom": "Nelson Aeroport",
        "latitude": -41.3001,
        "longitude": 173.2252
    },
    {
        "id": "AVNS01",
        "Nom": "Avignon Courtine",
        "latitude": 43.9301,
        "longitude": 4.7856
    },
    {
        "id": "ZOPN02",
        "Nom": "St. Wendel",
        "latitude": 49.4748,
        "longitude": 7.1771
    },
    {
        "id": "ZQPW02",
        "Nom": "Kleve",
        "latitude": 51.7997,
        "longitude": 6.1365
    },
    {
        "id": "ATLT02",
        "Nom": "Aéroport d’Atlanta",
        "latitude": 33.641,
        "longitude": -84.4668
    },
    {
        "id": "LISC09",
        "Nom": "Lisbonne Centre Ville Castilho",
        "latitude": 38.7279,
        "longitude": -9.1565
    },
    {
        "id": "RVNX01",
        "Nom": "Rovaniemi Railway Station",
        "latitude": 66.4983,
        "longitude": 25.7059
    },
    {
        "id": "LONW03",
        "Nom": "Purfleet",
        "latitude": 51.4958,
        "longitude": 0.2302
    },
    {
        "id": "LVEC02",
        "Nom": "Leverkusen Westphalie",
        "latitude": 51.0268,
        "longitude": 6.991
    },
    {
        "id": "DENO01",
        "Nom": "Denver Aéroport",
        "latitude": 39.8658,
        "longitude": -104.6741
    },
    {
        "id": "BIQX01",
        "Nom": "Biarritz Gare",
        "latitude": 43.4687,
        "longitude": -1.5464
    },
    {
        "id": "BUHC01",
        "Nom": "Bucharest",
        "latitude": 44.4482,
        "longitude": 26.1028
    },
    {
        "id": "BWEC01",
        "Nom": "Braunschweig",
        "latitude": 52.253,
        "longitude": 10.5372
    },
    {
        "id": "WOVC01",
        "Nom": "Wolverhampton",
        "latitude": 52.5834,
        "longitude": -2.1008
    },
    {
        "id": "ZNQC01",
        "Nom": "Ingolstadt Monikaviertel",
        "latitude": 48.7517,
        "longitude": 11.4321
    },
    {
        "id": "DTMC01",
        "Nom": "Dortmund West",
        "latitude": 51.52,
        "longitude": 7.4194
    },
    {
        "id": "XSFS01",
        "Nom": "Auxerre",
        "latitude": 47.808,
        "longitude": 3.5646
    },
    {
        "id": "ROMC04",
        "Nom": "Rome Via Tiburtina",
        "latitude": 41.9242,
        "longitude": 12.5695
    },
    {
        "id": "BNXT01",
        "Nom": "Banja Luka Aeroport",
        "latitude": 44.942,
        "longitude": 17.2974
    },
    {
        "id": "HAMS01",
        "Nom": "Hamburg South Harburg",
        "latitude": 53.4642,
        "longitude": 9.9795
    },
    {
        "id": "KLTC01",
        "Nom": "Kaiserslautern",
        "latitude": 49.4406,
        "longitude": 7.7427
    },
    {
        "id": "QRLC01",
        "Nom": "Marbella Avda. Ricardo Soriano",
        "latitude": 36.5093,
        "longitude": -4.8734
    },
    {
        "id": "EBJC01",
        "Nom": "Esbjerg",
        "latitude": 55.4702,
        "longitude": 8.4586
    },
    {
        "id": "SGDC01",
        "Nom": "Soenderborg",
        "latitude": 54.9626,
        "longitude": 9.7863
    },
    {
        "id": "SVQE01",
        "Nom": "Séville Furgonetas",
        "latitude": 37.3813,
        "longitude": -5.9303
    },
    {
        "id": "SOFT02",
        "Nom": "Sofia Aeroport Terminal 2",
        "latitude": 42.6883,
        "longitude": 23.4143
    },
    {
        "id": "LRNL01",
        "Nom": "Logrono Gare",
        "latitude": 42.4579,
        "longitude": -2.4426
    },
    {
        "id": "OFEC01",
        "Nom": "Offenbach / Main",
        "latitude": 50.0852,
        "longitude": 8.7463
    },
    {
        "id": "RIXC01",
        "Nom": "Riga",
        "latitude": 56.9547,
        "longitude": 24.1095
    },
    {
        "id": "DRSL01",
        "Nom": "Dresden (Station Principale) Gare",
        "latitude": 51.0384,
        "longitude": 13.7357
    },
    {
        "id": "ZLBC01",
        "Nom": "Viege, Zerzuben Garage",
        "latitude": 46.294,
        "longitude": 7.9014
    },
    {
        "id": "UWPS02",
        "Nom": "Solingen",
        "latitude": 51.1818,
        "longitude": 7.0809
    },
    {
        "id": "YYCO02",
        "Nom": "Calgary Aéroport",
        "latitude": 51.136,
        "longitude": -114.0343
    },
    {
        "id": "PSAC04",
        "Nom": "Pisa Dt",
        "latitude": 43.7144,
        "longitude": 10.3954
    },
    {
        "id": "XATC01",
        "Nom": "Antibes",
        "latitude": 43.6018,
        "longitude": 7.0796
    },
    {
        "id": "UPFC01",
        "Nom": "Pforzheim",
        "latitude": 48.9043,
        "longitude": 8.6581
    },
    {
        "id": "PENT01",
        "Nom": "Penang Intl Aeroport",
        "latitude": 5.2939,
        "longitude": 100.2656
    },
    {
        "id": "ZNVN01",
        "Nom": "Montabaur",
        "latitude": 50.4413,
        "longitude": 7.8299
    },
    {
        "id": "HUYS02",
        "Nom": "Lincoln",
        "latitude": 53.2306,
        "longitude": -0.5463
    },
    {
        "id": "BUDT02",
        "Nom": "Budapest Aeroport T2B",
        "latitude": 47.4314,
        "longitude": 19.2634
    },
    {
        "id": "MMAC01",
        "Nom": "Malmo City - Railway Station",
        "latitude": 55.6067,
        "longitude": 13.0045
    },
    {
        "id": "HAJL01",
        "Nom": "Hanovre Gare Central",
        "latitude": 52.3767,
        "longitude": 9.7414
    },
    {
        "id": "VRLC01",
        "Nom": "Vila Real",
        "latitude": 41.3089,
        "longitude": -7.7363
    },
    {
        "id": "NAPC04",
        "Nom": "Naples ",
        "latitude": 40.822,
        "longitude": 14.1909
    },
    {
        "id": "BSHN02",
        "Nom": "Worthing & Lancing",
        "latitude": 50.8214,
        "longitude": -0.3349
    },
    {
        "id": "MPLL02",
        "Nom": "Montpellier Gare",
        "latitude": 43.6037,
        "longitude": 3.8799
    },
    {
        "id": "CGNN01",
        "Nom": "Cologne Bilderstoeckchen",
        "latitude": 50.9812,
        "longitude": 6.9182
    },
    {
        "id": "BZGT01",
        "Nom": "Bydgoszcz Aeroport",
        "latitude": 53.0938,
        "longitude": 17.9974
    },
    {
        "id": "OPOS05",
        "Nom": "Vila Nova De Gaia",
        "latitude": 41.1258,
        "longitude": -8.6055
    },
    {
        "id": "WROT01",
        "Nom": "Wroclaw Aeroport",
        "latitude": 51.1094,
        "longitude": 16.8813
    },
    {
        "id": "MELC03",
        "Nom": "Melbourne South",
        "latitude": -37.8243,
        "longitude": 144.9564
    },
    {
        "id": "OSDT01",
        "Nom": "Ostersund Froson Aeroport",
        "latitude": 63.1984,
        "longitude": 14.4979
    },
    {
        "id": "XSLC01",
        "Nom": "Sarlat La Caneda",
        "latitude": 44.8786,
        "longitude": 1.2166
    },
    {
        "id": "FNIX01",
        "Nom": "Nimes lgv pont du gard",
        "latitude": 43.817,
        "longitude": 4.5076
    },
    {
        "id": "QAQC01",
        "Nom": "L'Aquila Centre Ville",
        "latitude": 42.3567,
        "longitude": 13.3985
    },
    {
        "id": "EAVC01",
        "Nom": "Huelva",
        "latitude": 37.2669,
        "longitude": -6.9377
    },
    {
        "id": "XBVC02",
        "Nom": "Beaune",
        "latitude": 47.0168,
        "longitude": 4.8233
    },
    {
        "id": "LLAT01",
        "Nom": "Lulea Kallax Aeroport",
        "latitude": 65.5489,
        "longitude": 22.1245
    },
    {
        "id": "EUMC04",
        "Nom": "Itzehoe",
        "latitude": 53.9259,
        "longitude": 9.5074
    },
    {
        "id": "KIDC01",
        "Nom": "Kristianstad",
        "latitude": 56.0274,
        "longitude": 14.1726
    },
    {
        "id": "BEGT01",
        "Nom": "Belgrade Aeroport",
        "latitude": 44.8187,
        "longitude": 20.2894
    },
    {
        "id": "XACL01",
        "Nom": "Arcachon",
        "latitude": 44.6595,
        "longitude": -1.1647
    },
    {
        "id": "MADW02",
        "Nom": "Las Rozas",
        "latitude": 40.4899,
        "longitude": -3.8756
    },
    {
        "id": "VNOT01",
        "Nom": "Vilnius Aeroport",
        "latitude": 54.6426,
        "longitude": 25.2774
    },
    {
        "id": "OREC04",
        "Nom": "Orleans Olivet",
        "latitude": 47.8443,
        "longitude": 1.9211
    },
    {
        "id": "KIRT01",
        "Nom": "Kerry Aeroport",
        "latitude": 52.182,
        "longitude": -9.5395
    },
    {
        "id": "RBAT01",
        "Nom": "Rabat Aeroport",
        "latitude": 31.6363,
        "longitude": -6.8579
    },
    {
        "id": "TRNC09",
        "Nom": "Turin Ovest",
        "latitude": 45.0741,
        "longitude": 7.6189
    },
    {
        "id": "PMRT01",
        "Nom": "Palmerston North Aeroport",
        "latitude": -40.3234,
        "longitude": 175.6212
    },
    {
        "id": "ODBL02",
        "Nom": "Cordoba",
        "latitude": 37.8891,
        "longitude": -4.7892
    },
    {
        "id": "NCLC02",
        "Nom": "Gateshead",
        "latitude": 54.9661,
        "longitude": -1.6037
    },
    {
        "id": "SFOT02",
        "Nom": "San Francisco Aéroport",
        "latitude": 37.6213,
        "longitude": -122.3789
    },
    {
        "id": "AEBC01",
        "Nom": "Amberg",
        "latitude": 49.4373,
        "longitude": 11.881
    },
    {
        "id": "QPAC01",
        "Nom": "Padova",
        "latitude": 45.4172,
        "longitude": 11.8792
    },
    {
        "id": "PVXC02",
        "Nom": "Pavia",
        "latitude": 45.1817,
        "longitude": 9.154
    },
    {
        "id": "DTMN01",
        "Nom": "Dortmund Nord",
        "latitude": 51.5413,
        "longitude": 7.4576
    },
    {
        "id": "PCNC01",
        "Nom": "Picton City",
        "latitude": -41.2854,
        "longitude": 174.0053
    },
    {
        "id": "TCIC01",
        "Nom": "Tenerife Puerto De La Cruz La Paz",
        "latitude": 28.4134,
        "longitude": -16.5366
    },
    {
        "id": "LISC08",
        "Nom": "Lisbon Centre ville El Corte Ingles",
        "latitude": 38.7324,
        "longitude": -9.1538
    },
    {
        "id": "ZPFC03",
        "Nom": "Passau",
        "latitude": 48.5721,
        "longitude": 13.4312
    },
    {
        "id": "AALT01",
        "Nom": "Aalborg Aeroport",
        "latitude": 57.0868,
        "longitude": 9.8724
    },
    {
        "id": "STOC01",
        "Nom": "Stockholm City",
        "latitude": 59.3341,
        "longitude": 18.0539
    },
    {
        "id": "TLSW02",
        "Nom": "Toulouse Blagnac Ganelous",
        "latitude": 43.637,
        "longitude": 1.3724
    },
    {
        "id": "TBSC03",
        "Nom": "Place Meidan de Tbilissi",
        "latitude": 41.6904,
        "longitude": 44.8086
    },
    {
        "id": "UROX02",
        "Nom": "Rouen Gare",
        "latitude": 49.4481,
        "longitude": 1.093
    },